
  { "type" : "FeatureCollection",
    "features" : 
    [ 
      { "type" : "Feature",
        "geometry" : 
        { "type" : "Point",
          "coordinates" : 
          [ 36.99806,
            35.99861 ] },
        "properties" : 
        { "uri" : "http:\/\/syriaca.org\/place\/162",
          "name" : "Qenneshrin",
          "desc" : "A city southwest of Aleppo and east of Antioch. كورة ومدينة مرحلة عن حلب بينها وبين حمص مندثرة. a district and a town between Aleppo and Ḥomṣ; no longer in existence. Attestation of name قِنَّسرين in the Muʿjam al-buldān of Yāqūt al-Ḥamawī.",
          "type" : "settlement" } },
      
      { "type" : "Feature",
        "geometry" : 
        { "type" : "Point",
          "coordinates" : 
          [ 42.195833,
            37.325 ] },
        "properties" : 
        { "uri" : "http:\/\/syriaca.org\/place\/88",
          "name" : "Gazarta — ܓܙܪܬܐ ܕܒܪ ܥܘܡܪ",
          "desc" : "A city on the Tigris river between Amida and Mosul. ܡܕܺܝܢܬܘܢܝܬܳܐ ܗܝ ܕܥܰܠ ܕܶܩܠܰܬ ܒܶܝܬ ܐܳܡܝܕ ܠܡܰܘܨܠ. بلدة بين الموصل وديار بكر راكبة على دجلة a town between Mosul and Diyarbakir, in a deep valley on the west bank of the Tigris. Attestation of name ܓܙܪܬܐ ܙܒܕܝܬܐ in Mingana Syr. Ms. 421 in a note c. 1700. Attestation of name جزيرة ابن عمر in the Muʿjam al-buldān of Yāqūt al-Ḥamawī. This place shares a name with one or more distinct places. This place shares a location with one or more distinct places that should not be confused with one another. Not the same conceptual place as http:\/\/pleiades.stoa.org\/places\/874296.",
          "type" : "settlement" } },
      
      { "type" : "Feature",
        "geometry" : 
        { "type" : "Point",
          "coordinates" : 
          [ 42.508844,
            36.53173 ] },
        "properties" : 
        { "uri" : "http:\/\/syriaca.org\/place\/638",
          "name" : "Qasr Serij",
          "desc" : "A ruined church on the road between Mosul and Nisibis.",
          "type" : "church" } },
      
      { "type" : "Feature",
        "geometry" : 
        { "type" : "Point",
          "coordinates" : 
          [ 50.056,
            26.571 ] },
        "properties" : 
        { "uri" : "http:\/\/syriaca.org\/place\/2882",
          "name" : "Dayrin — ܕܝܪܝܢ",
          "desc" : "One of the islands in Beth Qaṭraye Attestation of name ܕܝܪܝܢ in the Synodicon Orientale. Attestation of names دارين and الدارين in the Kitāb al-masālik wa-l-mamālik of Abuʾl-Qāsim Ibn Khurradādhbih. Attestation of name دارين in the Kitāb al-buldān of Aḥmad b. Muḥammad al-Hamadhānī Ibn al-Faqīh.",
          "type" : "island" } },
      
      { "type" : "Feature",
        "geometry" : 
        { "type" : "Point",
          "coordinates" : 
          [ 41.3,
            36.683333 ] },
        "properties" : 
        { "uri" : "http:\/\/syriaca.org\/place\/5647",
          "name" : "Wadi Dara - ܢܗܪܐ ܕܒܝܬ ܘܫܝ",
          "desc" : "Joh. Eph., EH 6.26, records that the Persian army retreated to a small river after their defeat at Tella in June 582. Michael Whitby has identified this river as the Wadi Dara (also called Wadi Jarrah), a tributary of the Khabur close to Dara. Mesopotamia",
          "type" : "river" } },
      
      { "type" : "Feature",
        "geometry" : 
        { "type" : "Point",
          "coordinates" : 
          [ 38.6666666,
            38.1666666 ] },
        "properties" : 
        { "uri" : "http:\/\/syriaca.org\/place\/63",
          "name" : "Claudia — ܩܠܘܕܝܐ",
          "desc" : "A city southeast of Melitene. ܚܶܣܢܳܐ ܕܩܰܪܝܒ ܗܘܐ ܠܡܺܝܠܝܛܝܢܝ ܐܶܣܬܚܦ ܘܰܗܦܰܟ ܒܢܳܝܗܝ ܚܰܣܢ ܒܰܪ ܩܚܛܒܗ ܫܢܰܬ 141 ܗܳܓܳܪܳܝܬܐ. ܘܫܰܚܠܦܗ ܠܰܐܬܪܐ ܒܰܫܡܗ. ܘܰܚܪܒ ܒܳܬܰܪ ܕܳܪܐ ܬܠܳܬܰܥܣܝܪܳܝܐ. حصن كان بقرب ملطية هدم فاعاد بناءه الحسن بن قحطبة سنة 141 هـ وحوله بلدة باسمه خربت بعد القرن الثالث عشر. a citadel near Melitene, destroyed and rebuilt by al-Ḥasan Ibn Quḥṭuba in 141 A.H. Around the citadel was built a town bearing the same name, but it was laid to ruin after the thirteenth century. Attestation of name قلوذية in the Muʿjam al-buldān of Yāqūt al-Ḥamawī.",
          "type" : "settlement" } },
      
      { "type" : "Feature",
        "geometry" : 
        { "type" : "Point",
          "coordinates" : 
          [ 48.512209,
            34.799294 ] },
        "properties" : 
        { "uri" : "http:\/\/syriaca.org\/place\/823",
          "name" : "Hamadān",
          "desc" : "Attestation of name هَمَذَان in the Muʿjam al-buldān of Yāqūt al-Ḥamawī.",
          "type" : "settlement" } },
      
      { "type" : "Feature",
        "geometry" : 
        { "type" : "Point",
          "coordinates" : 
          [ 50.8786297,
            34.6417881 ] },
        "properties" : 
        { "uri" : "http:\/\/syriaca.org\/place\/4217",
          "name" : "Qum",
          "type" : "settlement" } },
      
      { "type" : "Feature",
        "geometry" : 
        { "type" : "Point",
          "coordinates" : 
          [ 47.7011347,
            30.7818659 ] },
        "properties" : 
        { "uri" : "http:\/\/syriaca.org\/place\/4203",
          "name" : "Bahman-Ardashir",
          "type" : "diocese" } },
      
      { "type" : "Feature",
        "geometry" : 
        { "type" : "Point",
          "coordinates" : 
          [ 40.73,
            34.747 ] },
        "properties" : 
        { "uri" : "http:\/\/syriaca.org\/place\/77",
          "name" : "Dura-Europos",
          "desc" : "Ancient city situated on the west bank of the Middle Euphrates, today known as Tell Ṣāliḥiyya, some 90 km. south-east of Dayr al-Zor, Syria. 178. Dura-Europos",
          "type" : "settlement" } },
      
      { "type" : "Feature",
        "geometry" : 
        { "type" : "Point",
          "coordinates" : 
          [ 43.0896664,
            40.6134312 ] },
        "properties" : 
        { "uri" : "http:\/\/syriaca.org\/place\/4029",
          "name" : "Kars",
          "type" : "settlement" } },
      
      { "type" : "Feature",
        "geometry" : 
        { "type" : "Point",
          "coordinates" : 
          [ 38.1368047166,
            37.6635920234 ] },
        "properties" : 
        { "uri" : "http:\/\/syriaca.org\/place\/4015",
          "name" : "Commagene",
          "type" : "region" } },
      
      { "type" : "Feature",
        "geometry" : 
        { "type" : "Point",
          "coordinates" : 
          [ 35.331699,
            31.704703 ] },
        "properties" : 
        { "uri" : "http:\/\/syriaca.org\/place\/1179",
          "name" : "Mar Sabas",
          "desc" : "A monastery near Jerusalem",
          "type" : "monastery" } },
      
      { "type" : "Feature",
        "geometry" : 
        { "type" : "Point",
          "coordinates" : 
          [ 39.8837721,
            29.8287032 ] },
        "properties" : 
        { "uri" : "http:\/\/syriaca.org\/place\/4001",
          "name" : "Adummatu",
          "type" : "settlement" } },
      
      { "type" : "Feature",
        "geometry" : 
        { "type" : "Point",
          "coordinates" : 
          [ 29.904133,
            31.195371 ] },
        "properties" : 
        { "uri" : "http:\/\/syriaca.org\/place\/572",
          "name" : "Alexandria — ܐܠܟܣܢܕܪܝܐ",
          "desc" : "A city in Egypt. Attestation of name الاسكندرية in the Muʿjam al-buldān of Yāqūt al-Ḥamawī. Egypt",
          "type" : "settlement" } },
      
      { "type" : "Feature",
        "geometry" : 
        { "type" : "Point",
          "coordinates" : 
          [ 36.5348059738,
            32.7335787681 ] },
        "properties" : 
        { "uri" : "http:\/\/syriaca.org\/place\/214",
          "name" : "Ḥawrān — ܚܘܪܢ",
          "desc" : "A region south of Damascus and east of the Sea of Galilee. Hawran, also called Haurin, is a mountainous region in southern Syria. Joh. Eph., EH 3.40, mentions that Magnus, an official who held high ranks under Justin II and Tiberius, was a native of this region. Attestation of name حَوران in the Muʿjam al-buldān of Yāqūt al-Ḥamawī. Syria",
          "type" : "region" } },
      
      { "type" : "Feature",
        "geometry" : 
        { "type" : "Point",
          "coordinates" : 
          [ 39.766666,
            37.233333 ] },
        "properties" : 
        { "uri" : "http:\/\/syriaca.org\/place\/200",
          "name" : "Tella — ܬܠܐ",
          "desc" : "A town east of Edessa and west of Mardin. ܡܕܝܺܢܬܐ ܗܘܳܬ ܡܫܰܟܠܠܬܐ ܕܒܶܝܬ ܡܰܪܕܝܢ ܠܐܘܪܗܳܝ ܡܰܪܕܶܐ ܬܪܶܝܢ ܡܰܫ̈ܩܠܝܢ ܡܶܢ ܩܰܕܡܳܝܬܐ ܘܝܰܘܡܳܢ ܡܕܝܢܬܽܘܢܳܝܬܳܐ ܗܝ ܕܡܶܬܶܐܡܰܪ ܠܗ̇ ܘܶܝܪܰܐܢܫܰܗܝܪ. كانت مدينة عامرة بين ماردين والرها مسافة مرحلتين عن الاولى. وهي اليوم بليدة يقال لها ويران شهر once a flourishing town between Mardin and Edessa, about two leagues from Mardin. Today it is a small village called Wayran Shahr. Attestation of name تل مَوْزَن in the Muʿjam al-buldān of Yāqūt al-Ḥamawī. This place shares a name with one or more distinct places. Syria",
          "type" : "settlement" } },
      
      { "type" : "Feature",
        "geometry" : 
        { "type" : "Point",
          "coordinates" : 
          [ 36.842222,
            34.021667 ] },
        "properties" : 
        { "uri" : "http:\/\/syriaca.org\/place\/228",
          "name" : "Musa al-Ḥabashi — ܕܝܪܐ ܕܡܪܝ ܡܘܫܐ ܟܘܫܝܐ",
          "desc" : "The Monastery of Moses the Ethiopian is perched on top of a steep, rocky promontory that juts out of a deep gully between two cliffs in the high region south of Nabk. 383. Mūsā al-Ḥabashī, Dayr Mār ܒܛܘܪܐ ܡܬܰܢܳܢܐ ܡܰܪܕܶܐ ܫܳܥܐ ܘܦܶܠܓܳܐ ܡܶܢ ܐܰܬܪܐ ܕܢܰܒܟ. ܐܶܬܒܢܝ ܒܫܘܪܝܐ ܕܕܳܪܐ ܫܬܝܬܳܝܐ ܘܐܶܬܚܰܕܬ ܫܢܰܬ 1559 ܘܰܗܘܐ ܟܘܪܣܝܳܐ ܐܶܦܝܣܩܘܦܳܝܐ ܒܰܐܚܪ̈ܳܝܬܗ ܕܕܳܪܐ ܕܝ̄ܕ ܘܐܶܬܢܰܦܩ ܒܗ ܬܪܶܝܢ ܦܰܛܪܝܪ̈ܟܶܐ ܘܥܶܣܪܝܢ ܐܶܦܝܣܩܘܦܶܐ ܘܰܡܝܰܬܰܒ ܗܘܐ ܥܕܰܡܐ ܠܰܫܢܰܬ 1832 ܘܐܶܬܬܚܶܕ ܡܶܢܰܢ ܒܚܰܝܠܐ ܡܕܰܒܪܳܢܝܐ ܘܰܗܘܐ ܣܦܝܩ. في الجبل المدخن مسيرة ساعة ونصف عن بلدة النبك، رفع بناؤه اوائل القرن السادس وجدد عام 1556 وصار كرسيا اسقفيا اواخر القرن الرابع عشر وتخرج فيها بطريركان وعشرون اسقفا ولم يزل آهلا حتى سنة 1832 ثم اغتصب منا بنفوذ سياسي وامسى خاليا. in the Smoke Mountain, an hour and a half from the town of al-Nabak in Syria. This monastery was built in the sixth century and renovated in 1556. It became a metropolitan see at the end of the fourteenth century. It was inhabited until 1832, when it was usurped from us (by the seceding faction which joined the Church of Rome) through political influence and later was deserted. Two Patriarchs and twenty bishops graduated from it.",
          "type" : "monastery" } },
      
      { "type" : "Feature",
        "geometry" : 
        { "type" : "Point",
          "coordinates" : 
          [ 32.5260973,
            15.6031149 ] },
        "properties" : 
        { "uri" : "http:\/\/syriaca.org\/place\/4161",
          "name" : "Khartoum",
          "type" : "settlement" } },
      
      { "type" : "Feature",
        "geometry" : 
        { "type" : "Point",
          "coordinates" : 
          [ 35.6191595,
            33.1864496 ] },
        "properties" : 
        { "uri" : "http:\/\/syriaca.org\/place\/599",
          "name" : "Jordan",
          "desc" : "A river which flows into the Dead Sea. Attestation of name الأُرْدُن in the Muʿjam al-buldān of Yāqūt al-Ḥamawī.",
          "type" : "river" } },
      
      { "type" : "Feature",
        "geometry" : 
        { "type" : "Point",
          "coordinates" : 
          [ 44.2154002,
            15.3549628 ] },
        "properties" : 
        { "uri" : "http:\/\/syriaca.org\/place\/4175",
          "name" : "Ṣanʿaʾ",
          "type" : "settlement" } },
      
      { "type" : "Feature",
        "geometry" : 
        { "type" : "Point",
          "coordinates" : 
          [ 80.7246163,
            7.8836573 ] },
        "properties" : 
        { "uri" : "http:\/\/syriaca.org\/place\/2935",
          "name" : "Taprobane",
          "desc" : "The island of Sri Lanka off the coast of India Attestation of name طبروباني in the Kitāb al-aʿlāq al-nafīsa of Aḥmad ibn ʿUmar Ibn Rustah.",
          "type" : "island" } },
      
      { "type" : "Feature",
        "geometry" : 
        { "type" : "Point",
          "coordinates" : 
          [ 76.121386,
            22.245274 ] },
        "properties" : 
        { "uri" : "http:\/\/syriaca.org\/place\/4388",
          "name" : "Narmada River",
          "type" : "river" } },
      
      { "type" : "Feature",
        "geometry" : 
        { "type" : "Point",
          "coordinates" : 
          [ 79.9662423,
            8.9507439 ] },
        "properties" : 
        { "uri" : "http:\/\/syriaca.org\/place\/4439",
          "name" : "Mantai",
          "type" : "settlement" } },
      
      { "type" : "Feature",
        "geometry" : 
        { "type" : "Point",
          "coordinates" : 
          [ 77.686107,
            34.527504 ] },
        "properties" : 
        { "uri" : "http:\/\/syriaca.org\/place\/4377",
          "name" : "Ladakh",
          "type" : "region" } },
      
      { "type" : "Feature",
        "geometry" : 
        { "type" : "Point",
          "coordinates" : 
          [ 70.3730140659,
            26.8758272626 ] },
        "properties" : 
        { "uri" : "http:\/\/syriaca.org\/place\/4411",
          "name" : "Thar Desert",
          "type" : "region" } },
      
      { "type" : "Feature",
        "geometry" : 
        { "type" : "Point",
          "coordinates" : 
          [ 85.7128105513,
            35.6356276188 ] },
        "properties" : 
        { "uri" : "http:\/\/syriaca.org\/place\/4376",
          "name" : "Kunlun Shan",
          "type" : "mountain" } },
      
      { "type" : "Feature",
        "geometry" : 
        { "type" : "Point",
          "coordinates" : 
          [ 109.2775583965,
            40.2803898943 ] },
        "properties" : 
        { "uri" : "http:\/\/syriaca.org\/place\/4410",
          "name" : "Tenduc",
          "type" : "region" } },
      
      { "type" : "Feature",
        "geometry" : 
        { "type" : "Point",
          "coordinates" : 
          [ 98.5097909,
            39.7437418 ] },
        "properties" : 
        { "uri" : "http:\/\/syriaca.org\/place\/4404",
          "name" : "Jiuquan",
          "type" : "settlement" } },
      
      { "type" : "Feature",
        "geometry" : 
        { "type" : "Point",
          "coordinates" : 
          [ 78.4010124,
            17.3832647 ] },
        "properties" : 
        { "uri" : "http:\/\/syriaca.org\/place\/4362",
          "name" : "Golkonda",
          "type" : "settlement" } },
      
      { "type" : "Feature",
        "geometry" : 
        { "type" : "Point",
          "coordinates" : 
          [ 78.1192517,
            9.919542 ] },
        "properties" : 
        { "uri" : "http:\/\/syriaca.org\/place\/4438",
          "name" : "Madurai",
          "type" : "settlement" } },
      
      { "type" : "Feature",
        "geometry" : 
        { "type" : "Point",
          "coordinates" : 
          [ 46.7701721,
            24.6501376 ] },
        "properties" : 
        { "uri" : "http:\/\/syriaca.org\/place\/4174",
          "name" : "Riyadh",
          "type" : "settlement" } },
      
      { "type" : "Feature",
        "geometry" : 
        { "type" : "Point",
          "coordinates" : 
          [ 50.30604,
            29.230338 ] },
        "properties" : 
        { "uri" : "http:\/\/syriaca.org\/place\/4160",
          "name" : "Kharg Island",
          "type" : "settlement" } },
      
      { "type" : "Feature",
        "geometry" : 
        { "type" : "Point",
          "coordinates" : 
          [ 35.53572,
            32.7966 ] },
        "properties" : 
        { "uri" : "http:\/\/syriaca.org\/place\/201",
          "name" : "Tiberias",
          "desc" : "A city on the Sea of Galilee. Attestation of name طبرية in the Muʿjam al-buldān of Yāqūt al-Ḥamawī.",
          "type" : "settlement" } },
      
      { "type" : "Feature",
        "geometry" : 
        { "type" : "Point",
          "coordinates" : 
          [ 36.709444,
            34.730833 ] },
        "properties" : 
        { "uri" : "http:\/\/syriaca.org\/place\/215",
          "name" : "Emesa — ܚܡܨ",
          "desc" : "City in Syria. 259. Ḥimṣ Attestation of name حِمْص in the Muʿjam al-buldān of Yāqūt al-Ḥamawī.",
          "type" : "settlement" } },
      
      { "type" : "Feature",
        "geometry" : 
        { "type" : "Point",
          "coordinates" : 
          [ 94.6674728,
            40.1380718 ] },
        "properties" : 
        { "uri" : "http:\/\/syriaca.org\/place\/4000",
          "name" : "Dunhuang",
          "type" : "settlement" } },
      
      { "type" : "Feature",
        "geometry" : 
        { "type" : "Point",
          "coordinates" : 
          [ 39.0401852,
            39.6027537 ] },
        "properties" : 
        { "uri" : "http:\/\/syriaca.org\/place\/4014",
          "name" : "Camacha",
          "type" : "settlement" } },
      
      { "type" : "Feature",
        "geometry" : 
        { "type" : "Point",
          "coordinates" : 
          [ 47.578826,
            30.8946388 ] },
        "properties" : 
        { "uri" : "http:\/\/syriaca.org\/place\/4028",
          "name" : "Karka d-Maishan",
          "type" : "diocese" } },
      
      { "type" : "Feature",
        "geometry" : 
        { "type" : "Point",
          "coordinates" : 
          [ 43,
            36.866667 ] },
        "properties" : 
        { "uri" : "http:\/\/syriaca.org\/place\/76",
          "name" : "Duhok — ܒܝܬ ܢܘܗܕܪܐ",
          "desc" : "A town in northern Iraq north of Alqosh and southeast of Zakho. ܡܕܝܢܬܐ ܕܰܠܓܰܪܒܰܝ ܡܰܘܨܠ ܘܡܰܬܶܐܡܰܪ ܠܗ̇ ܕܰܗܽܘܟ. بلدة في شمالي الموصل يقال لها دهوك a town north of Mosul, now called Duhuk. This place shares a name with one or more distinct places. This place shares a location with one or more distinct places that should not be confused with one another.",
          "type" : "settlement" } },
      
      { "type" : "Feature",
        "geometry" : 
        { "type" : "Point",
          "coordinates" : 
          [ 22.5,
            37.5 ] },
        "properties" : 
        { "uri" : "http:\/\/syriaca.org\/place\/2673",
          "name" : "Greece — ܗܠܐܕܐ",
          "desc" : "The region located at the southern end of the Balkan Peninsula.",
          "type" : "region" } },
      
      { "type" : "Feature",
        "geometry" : 
        { "type" : "Point",
          "coordinates" : 
          [ 47.3654938,
            33.1305075 ] },
        "properties" : 
        { "uri" : "http:\/\/syriaca.org\/place\/4202",
          "name" : "al-Ṣaymara",
          "type" : "settlement" } },
      
      { "type" : "Feature",
        "geometry" : 
        { "type" : "Point",
          "coordinates" : 
          [ 41.95,
            37.933333 ] },
        "properties" : 
        { "uri" : "http:\/\/syriaca.org\/place\/188",
          "name" : "Siirt — ܣܥܪܬ",
          "desc" : "A city in eastern Turkey, southwest of Lake Van. 510. Siirt ܡܕܝܢܬܳܐ ܗܝ ܕܰܒܬܰܝܡܢܐ ܕܒܶܕܠܝܣ ( ܘܰܒܣܘܪܝܳܝܳܐ ܡܶܬܩܰܪܝܳܐ ܐܰܬܪܐ ܕܰܡܒܰܕܪ̈ܐ) مدينة جنوبي بدليس. a town south of Bedlis. [Modern name, Siirt. (tr.)] Attestation of name اسعرت in the Muʿjam al-buldān of Yāqūt al-Ḥamawī. This place shares a name with one or more distinct places. This place shares a location with one or more distinct places that should not be confused with one another.",
          "type" : "settlement" } },
      
      { "type" : "Feature",
        "geometry" : 
        { "type" : "Point",
          "coordinates" : 
          [ 44.3921578,
            32.6738983 ] },
        "properties" : 
        { "uri" : "http:\/\/syriaca.org\/place\/4216",
          "name" : "Qaṣr Ibn Hubayra",
          "type" : "settlement" } },
      
      { "type" : "Feature",
        "geometry" : 
        { "type" : "Point",
          "coordinates" : 
          [ 40.42574,
            35.15676 ] },
        "properties" : 
        { "uri" : "http:\/\/syriaca.org\/place\/62",
          "name" : "Circesium — ܩܪܩܝܣܝܘܢ",
          "desc" : "A city at the confluence of the Euphrates and the Khabur rivers. ܐܰܬܪܐ ܗܘ ܕܥܰܠ ܢܗܰܪ ܢܒܘܪܐܝܟܐ ܕܢܳܣܶܟ ܒܰܦܪܳܬ. ܚܪܶܒ ܘܐܝܬ ܒܕܘܟܬܗ ܩܪܝܬܳܐ ܕܡܶܬܐܡܰܪ ܠܳܗ̇ ܐܰܒܘܣܰܪܰܐܝ (ܒܨܝܪܗ̈) بلد على نهر الخابور عند مصبه في الفرات خرب وفي موضعه قرية ابو سراي (بصيرة). a town near the place where the Khabur joins the Euphrates; it no longer exists. On its site lies the village of Abu Saray (Busayra). Attestation of name قَرْقيْسِياء in the Muʿjam al-buldān of Yāqūt al-Ḥamawī.",
          "type" : "settlement" } },
      
      { "type" : "Feature",
        "geometry" : 
        { "type" : "Point",
          "coordinates" : 
          [ 22.952885,
            40.628342 ] },
        "properties" : 
        { "uri" : "http:\/\/syriaca.org\/place\/5646",
          "name" : "Thessalonica - ܬܣܠܘܢܝܩܐ",
          "desc" : "One of the most important Roman cities on the Balkan peninsula, Thessalonica was provincial capital of Macedonia prima and the administrative center of the whole Illyrian prefecture. Prior to the rise of Constantinople, it was even imperial capital during parts of the 4th century.",
          "type" : "settlement" } },
      
      { "type" : "Feature",
        "geometry" : 
        { "type" : "Point",
          "coordinates" : 
          [ 35.459407,
            31.741828 ] },
        "properties" : 
        { "uri" : "http:\/\/syriaca.org\/place\/639",
          "name" : "Qumran",
          "desc" : "A settlement near the Dead Sea.",
          "type" : "settlement" } },
      
      { "type" : "Feature",
        "geometry" : 
        { "type" : "Point",
          "coordinates" : 
          [ 36.933333,
            37.583333 ] },
        "properties" : 
        { "uri" : "http:\/\/syriaca.org\/place\/89",
          "name" : "Marʿash — ܡܪܥܫ",
          "desc" : "A city near the Pyramos river northeast of ʿAyn Zarba and northwest of ʿAintab. ܘܐܝܬܶܝܗ̇ ܓܰܪܡܰܐܢܝܩܝ ܥܰܬܝܩܬܐ ܡܕܝܺܢܬܐ ܕܰܒܓܰܪܒܝ ܚܳܠܳܒ ܘܰܒܬܝܡܢܳܐ ܕܣܺܝܘܐܰܣ وهي جرمانيقي القديمة؛ مدينة شمالي حلب وجنوبي سيواس. the ancient Germanicia, north of Aleppo and south of Sivas. [Modern name, Kahramanmaraş. (tr.)] Attestation of name مَرْعَش in the Muʿjam al-buldān of Yāqūt al-Ḥamawī.",
          "type" : "settlement" } },
      
      { "type" : "Feature",
        "geometry" : 
        { "type" : "Point",
          "coordinates" : 
          [ 26.9624137954,
            41.5178303653 ] },
        "properties" : 
        { "uri" : "http:\/\/syriaca.org\/place\/2854",
          "name" : "Thrace — ܬܪܩܝܐ",
          "desc" : "The region to the south and east of the Balkan Mountains A region in south-eastern Europe, Thrace was in Late Antiquity the name of both a diocese and a province.",
          "type" : "region" } },
      
      { "type" : "Feature",
        "geometry" : 
        { "type" : "Point",
          "coordinates" : 
          [ 44.766667,
            38.2 ] },
        "properties" : 
        { "uri" : "http:\/\/syriaca.org\/place\/177",
          "name" : "Salmas",
          "desc" : "A town northwest of Lake Urmia. Attestation of name سَلَماس in the Muʿjam al-buldān of Yāqūt al-Ḥamawī. This place shares a name with one or more distinct places. This place shares a location with one or more distinct places that should not be confused with one another.",
          "type" : "settlement" } },
      
      { "type" : "Feature",
        "geometry" : 
        { "type" : "Point",
          "coordinates" : 
          [ 43.789444,
            37.642778 ] },
        "properties" : 
        { "uri" : "http:\/\/syriaca.org\/place\/163",
          "name" : "Qudshanis",
          "desc" : "A town in the Hakkari mountains near the Greater Zab, northeast of Julamerk. Qūdshānīs district Hakkārī region This place shares a name with one or more distinct places. This place shares a location with one or more distinct places that should not be confused with one another.",
          "type" : "settlement" } },
      
      { "type" : "Feature",
        "geometry" : 
        { "type" : "Point",
          "coordinates" : 
          [ 62.1925,
            37.662778 ] },
        "properties" : 
        { "uri" : "http:\/\/syriaca.org\/place\/607",
          "name" : "Merv — ܡܪܘ",
          "desc" : "A city of Khurasan. Attestation of name مرو الشاهجان in the Muʿjam al-buldān of Yāqūt al-Ḥamawī.",
          "type" : "settlement" } },
      
      { "type" : "Feature",
        "geometry" : 
        { "type" : "Point",
          "coordinates" : 
          [ 36.75343335,
            34.16826385 ] },
        "properties" : 
        { "uri" : "http:\/\/syriaca.org\/place\/161",
          "name" : "Qara",
          "desc" : "Town in the Qalamun mountains, Syria, ca. 95 km. northeast of Damascus and less than 20 km. north of Nabk (see Dayr Mār Mūsā al-Ḥabashī), often mentioned as a caravan station between Ḥimṣ and Damascus. 439. Qara Attestation of name قارة in the Muʿjam al-buldān of Yāqūt al-Ḥamawī.",
          "type" : "settlement" } },
      
      { "type" : "Feature",
        "geometry" : 
        { "type" : "Point",
          "coordinates" : 
          [ 40.866752,
            37.85837 ] },
        "properties" : 
        { "uri" : "http:\/\/syriaca.org\/place\/5644",
          "name" : "Sophanene - ܒܝܬ ܨܘ̈ܦܢܝܐ",
          "desc" : "Sophanene was the name of a region in the southern part of Armenia, not to be confused with the neighbouring Sophene. Armenia",
          "type" : "region" } },
      
      { "type" : "Feature",
        "geometry" : 
        { "type" : "Point",
          "coordinates" : 
          [ 38.42424,
            36.97608 ] },
        "properties" : 
        { "uri" : "http:\/\/syriaca.org\/place\/48",
          "name" : "Serugh — ܣܪܘܓ",
          "desc" : "An ancient city where Jacob of Serugh was bishop. ܐܰܬܪܰܐ ܗܘ ܕܰܒܕܝܐܪ ܡܶܨܪ ܒܶܝܬ ܚܳܪܳܢ ܠܓܰܪܰܐܒܠܣ بليدة من ديار مضر بين حران وجرابلس. a small town in the Mudar territory, between Ḥarran and Jarabulus. [Modern name, Suruç (tr.)] Attestation of name سَرُوج in the Muʿjam al-buldān of Yāqūt al-Ḥamawī.",
          "type" : "settlement" } },
      
      { "type" : "Feature",
        "geometry" : 
        { "type" : "Point",
          "coordinates" : 
          [ 54.4305718,
            36.8422026 ] },
        "properties" : 
        { "uri" : "http:\/\/syriaca.org\/place\/4228",
          "name" : "Astarabad",
          "type" : "settlement" } },
      
      { "type" : "Feature",
        "geometry" : 
        { "type" : "Point",
          "coordinates" : 
          [ 33.91464,
            36.5786 ] },
        "properties" : 
        { "uri" : "http:\/\/syriaca.org\/place\/74",
          "name" : "Diocaesarea",
          "desc" : "A Roman town in the province of Isauria.",
          "type" : "settlement" } },
      
      { "type" : "Feature",
        "geometry" : 
        { "type" : "Point",
          "coordinates" : 
          [ 35.48333,
            38.73333 ] },
        "properties" : 
        { "uri" : "http:\/\/syriaca.org\/place\/60",
          "name" : "Caesarea — ܩܣܪܝܐ",
          "desc" : "A city in Cappadocia, modern Kayseri. ܡܕܝܢܬܳܐ ܗܝ ܕܰܒܬܰܝܡܢܳܐ ܡܰܕܢܚܳܝܐ ܕܰܐܢܩܘܪܰܐ ܘܡܶܬܩܰܪܝܳܐ ܝܰܘܡܳܢ ܩܰܝܣܰܪ. مدينة في الجنوب الشرقي من انقرة تعرف الآن بقيسر. a town southeast of Ankara, known today as Kayseri. Attestation of name قيسارية in the Muʿjam al-buldān of Yāqūt al-Ḥamawī. This place shares a name with one or more distinct places.",
          "type" : "settlement" } },
      
      { "type" : "Feature",
        "geometry" : 
        { "type" : "Point",
          "coordinates" : 
          [ 11.256929,
            43.768755 ] },
        "properties" : 
        { "uri" : "http:\/\/syriaca.org\/place\/820",
          "name" : "Florence — ܦܠܘܪܢܣܐ",
          "type" : "settlement" } },
      
      { "type" : "Feature",
        "geometry" : 
        { "type" : "Point",
          "coordinates" : 
          [ 37.057146,
            35.050807 ] },
        "properties" : 
        { "uri" : "http:\/\/syriaca.org\/place\/411",
          "name" : "Salamiyya — ܣܠܡܝܗ̇",
          "desc" : "A village in Syria. ܡܕܝܢܬܳܐ ܗܝ ܕܒܐܘܚܕܳܢܳܐ ܕܰܚܡܬ ܘܰܠܬܰܝܡܢܳܐ ܡܰܕܢܚܳܝܐ ܕܝܠܳܗ̇ ܒܰܦܢܝܬܐ ܕܡܰܕܒܪܳܐ. بلدة من اعمال حماه في جنوبها الشرقي في ناحية البرية. a town southeast of Ḥama, toward the desert. Attestation of name سَلَمْية in the Muʿjam al-buldān of Yāqūt al-Ḥamawī.",
          "type" : "settlement" } },
      
      { "type" : "Feature",
        "geometry" : 
        { "type" : "Point",
          "coordinates" : 
          [ 37.692332,
            37.427054 ] },
        "properties" : 
        { "uri" : "http:\/\/syriaca.org\/place\/405",
          "name" : "Raʿban — ܪܥܒܐܢ",
          "desc" : "ܡܕܝܢܬܳܐ ܗܘܳܬ ܕܒܶܝܬ ܚܳܠܳܒ ܠܫܡܝܫܛ ܘܚܶܪܒܰܬ. مدينة بين حلب وسميساط قرب الفرات وقد دثرت. a town between Aleppo and Samosata, near the Euphrates, no longer in existence. Attestation of name رَعْبان in the Muʿjam al-buldān of Yāqūt al-Ḥamawī.",
          "type" : "settlement" } },
      
      { "type" : "Feature",
        "geometry" : 
        { "type" : "Point",
          "coordinates" : 
          [ 27.874127,
            40.389806 ] },
        "properties" : 
        { "uri" : "http:\/\/syriaca.org\/place\/439",
          "name" : "Cyzicus — ܩܘܙܝܩܘܣ",
          "desc" : "ܡܕܝܢܬܳܐ ܗܝ ܥܰܬܝܩܬܳܐ ܕܝܬܒܳܐ ܗܘܳܬ ܥܰܠ ܝܰܕ ܝܰܡܐ ܕܡܰܪܡܰܪܐ ܚܶܪܒܰܬ ܒܪܘܥܳܐ ܫܢܰܬ 943 . مدينة قديمة كانت على ساحل بحر مرمرة خربت بزلزال سنة 943. an ancient city on the Sea of Marmara, destroyed by an earthquake in 943.",
          "type" : "settlement" } },
      
      { "type" : "Feature",
        "geometry" : 
        { "type" : "Point",
          "coordinates" : 
          [ 44.9186325,
            33.8886575 ] },
        "properties" : 
        { "uri" : "http:\/\/syriaca.org\/place\/4016",
          "name" : "Dasqarta d-Malka",
          "type" : "settlement" } },
      
      { "type" : "Feature",
        "geometry" : 
        { "type" : "Point",
          "coordinates" : 
          [ 35.85,
            34.43333 ] },
        "properties" : 
        { "uri" : "http:\/\/syriaca.org\/place\/203",
          "name" : "Tripolis — ܛܪܝܦܘܠܝܣ",
          "desc" : "A coastal city north of Beirut. Attestation of name اطرابُلس in the Muʿjam al-buldān of Yāqūt al-Ḥamawī.",
          "type" : "settlement" } },
      
      { "type" : "Feature",
        "geometry" : 
        { "type" : "Point",
          "coordinates" : 
          [ 41.468078,
            37.500035 ] },
        "properties" : 
        { "uri" : "http:\/\/syriaca.org\/place\/217",
          "name" : "Ḥaḥ — ܚܐܚ",
          "desc" : "A village in Ṭur ʿAbdin northeast of Midyat. Seert region",
          "type" : "settlement" } },
      
      { "type" : "Feature",
        "geometry" : 
        { "type" : "Point",
          "coordinates" : 
          [ 52.3360991,
            27.6683164 ] },
        "properties" : 
        { "uri" : "http:\/\/syriaca.org\/place\/4176",
          "name" : "Siraf",
          "type" : "settlement" } },
      
      { "type" : "Feature",
        "geometry" : 
        { "type" : "Point",
          "coordinates" : 
          [ 50.6342268,
            26.2821027 ] },
        "properties" : 
        { "uri" : "http:\/\/syriaca.org\/place\/4162",
          "name" : "Mashmahig",
          "type" : "settlement" } },
      
      { "type" : "Feature",
        "geometry" : 
        { "type" : "Point",
          "coordinates" : 
          [ 15.885196,
            42.7752864 ] },
        "properties" : 
        { "uri" : "http:\/\/syriaca.org\/place\/2936",
          "name" : "Adriatic Sea",
          "desc" : "The sea between Italy and Greece Attestation of name أذريس in the Kitāb al-aʿlāq al-nafīsa of Aḥmad ibn ʿUmar Ibn Rustah.",
          "type" : "open-water" } },
      
      { "type" : "Feature",
        "geometry" : 
        { "type" : "Point",
          "coordinates" : 
          [ 88.3375025,
            22.557626 ] },
        "properties" : 
        { "uri" : "http:\/\/syriaca.org\/place\/4348",
          "name" : "Calcutta",
          "type" : "settlement" } },
      
      { "type" : "Feature",
        "geometry" : 
        { "type" : "Point",
          "coordinates" : 
          [ 80.3759626238,
            42.1063223139 ] },
        "properties" : 
        { "uri" : "http:\/\/syriaca.org\/place\/4412",
          "name" : "Tian Shan Mountains.",
          "type" : "mountain" } },
      
      { "type" : "Feature",
        "geometry" : 
        { "type" : "Point",
          "coordinates" : 
          [ 109.963274,
            39.8223149 ] },
        "properties" : 
        { "uri" : "http:\/\/syriaca.org\/place\/4374",
          "name" : "Koshang",
          "type" : "settlement" } },
      
      { "type" : "Feature",
        "geometry" : 
        { "type" : "Point",
          "coordinates" : 
          [ 48.295051,
            38.24647 ] },
        "properties" : 
        { "uri" : "http:\/\/syriaca.org\/place\/798",
          "name" : "Ardabīl",
          "desc" : "Attestation of name أَرْدَبِيْل in the Muʿjam al-buldān of Yāqūt al-Ḥamawī.",
          "type" : "settlement" } },
      
      { "type" : "Feature",
        "geometry" : 
        { "type" : "Point",
          "coordinates" : 
          [ 108.8098894588,
            43.4091822526 ] },
        "properties" : 
        { "uri" : "http:\/\/syriaca.org\/place\/4360",
          "name" : "Gobi Desert",
          "type" : "settlement" } },
      
      { "type" : "Feature",
        "geometry" : 
        { "type" : "Point",
          "coordinates" : 
          [ 65.153887,
            44.988052 ] },
        "properties" : 
        { "uri" : "http:\/\/syriaca.org\/place\/4406",
          "name" : "Jaxartes River",
          "type" : "river" } },
      
      { "type" : "Feature",
        "geometry" : 
        { "type" : "Point",
          "coordinates" : 
          [ 80.45417,
            18.436667 ] },
        "properties" : 
        { "uri" : "http:\/\/syriaca.org\/place\/4361",
          "name" : "Godavari River",
          "type" : "river" } },
      
      { "type" : "Feature",
        "geometry" : 
        { "type" : "Point",
          "coordinates" : 
          [ 75.7711709,
            23.188042 ] },
        "properties" : 
        { "uri" : "http:\/\/syriaca.org\/place\/4413",
          "name" : "Ujjain",
          "type" : "settlement" } },
      
      { "type" : "Feature",
        "geometry" : 
        { "type" : "Point",
          "coordinates" : 
          [ -2.422,
            53.826 ] },
        "properties" : 
        { "uri" : "http:\/\/syriaca.org\/place\/2937",
          "name" : "Britain",
          "desc" : "An island northwest of Europe Attestation of name برطينية in the Kitāb al-aʿlāq al-nafīsa of Aḥmad ibn ʿUmar Ibn Rustah.",
          "type" : "island" } },
      
      { "type" : "Feature",
        "geometry" : 
        { "type" : "Point",
          "coordinates" : 
          [ 32.6802814,
            15.5237903 ] },
        "properties" : 
        { "uri" : "http:\/\/syriaca.org\/place\/4177",
          "name" : "Soba",
          "type" : "settlement" } },
      
      { "type" : "Feature",
        "geometry" : 
        { "type" : "Point",
          "coordinates" : 
          [ 39.033889,
            36.8775 ] },
        "properties" : 
        { "uri" : "http:\/\/syriaca.org\/place\/216",
          "name" : "Ḥarran — ܚܪܢ",
          "desc" : "Syr.\/Hebrew Ḥārān; Latin Carrhae; Arabic Ḥarran. Ancient city in Mesopotamia, approximately 45 km south-southeast of Edessa. 250. Ḥarran ܡܕܺܝܢܬܳܐ ܗܘܳܬ ܪܰܒܬܳܐ ܘܥܰܬܝܩܬܳܐ ܕܰܒܬܰܝܡܢܗ̇ ܕܐܽܘܪܗܳܝ ܘܰܚܫܝܒܳܐ ܗܘܳܬ ܪܒܐ ܕܐܰܬܪ̈ܘܳܬܐ ܕܡܨܪ ܘܰܩܪܝܬܳܐ ܗܝ ܗܳܫܐ. كانت مدينة عظيمة قديمة في جنوبي الرها و بينهما يوم وعُدّت قصبة ديار مضر وامست قرية once a great city, a day’s journey south from Edessa. It was considered the capital of Diyar Miṣr, but now is a small village. Attestation of name حرّان in the Muʿjam al-buldān of Yāqūt al-Ḥamawī. Mesopotamia",
          "type" : "settlement" } },
      
      { "type" : "Feature",
        "geometry" : 
        { "type" : "Point",
          "coordinates" : 
          [ 45.9861111111,
            35.1777777778 ] },
        "properties" : 
        { "uri" : "http:\/\/syriaca.org\/place\/4188",
          "name" : "Ḥalabja",
          "type" : "settlement" } },
      
      { "type" : "Feature",
        "geometry" : 
        { "type" : "Point",
          "coordinates" : 
          [ 35.4715133393,
            31.4156187045 ] },
        "properties" : 
        { "uri" : "http:\/\/syriaca.org\/place\/4017",
          "name" : "Dead Sea",
          "type" : "settlement" } },
      
      { "type" : "Feature",
        "geometry" : 
        { "type" : "Point",
          "coordinates" : 
          [ 32.8024507,
            36.0223426 ] },
        "properties" : 
        { "uri" : "http:\/\/syriaca.org\/place\/4003",
          "name" : "Anamur",
          "type" : "settlement" } },
      
      { "type" : "Feature",
        "geometry" : 
        { "type" : "Point",
          "coordinates" : 
          [ 36.735987,
            35.922817 ] },
        "properties" : 
        { "uri" : "http:\/\/syriaca.org\/place\/410",
          "name" : "Sarmin — ܣܪܡܝܢ",
          "desc" : "ܐܰܬܪܰܐ ܗܘ ܕܒܐܘܚܕܳܢܐ ܕܚܳܠܳܒ. بليدة من اعمال حلب. a small town in the province of Aleppo. Attestation of name سَرْمِيْن in the Muʿjam al-buldān of Yāqūt al-Ḥamawī.",
          "type" : "settlement" } },
      
      { "type" : "Feature",
        "geometry" : 
        { "type" : "Point",
          "coordinates" : 
          [ 50.5,
            38.5 ] },
        "properties" : 
        { "uri" : "http:\/\/syriaca.org\/place\/61",
          "name" : "Caspian Sea — ܝܡܐ ܕܩܙܒܝܢ",
          "desc" : "A large inland sea north of Iran and east of Adharbayjān. Attestation of name بحر الخَزَر in the Muʿjam al-buldān of Yāqūt al-Ḥamawī.",
          "type" : "open-water" } },
      
      { "type" : "Feature",
        "geometry" : 
        { "type" : "Point",
          "coordinates" : 
          [ 37.359985,
            37.153671 ] },
        "properties" : 
        { "uri" : "http:\/\/syriaca.org\/place\/75",
          "name" : "Doliche — ܕܠܘܟ",
          "desc" : "A town west of the Euphrates, north of Aleppo, and northeast of Cyrrhus. ܡܕܝܢܬܳܘܢܝܬܳܐ ܗܝ ܕܒܰܦܢܝܬ ܚܳܠܳܒ ܝܺܕܝܺܥܐ ܗܘܳܬ. ܪܰܚܝ̣ܩܐ ܗܘܳܬ ܡܶܢ ܫܰܡܺܝܫܰܛ ܐܝܟ ܬܪܶܥܣܰܪ ܡܝ̈ܠܐ ܘܝܰܘܡܳܢ ܚܰܪܝܒܐ. بليدة من نواحي حلب بالعواصم كانت وهي اثنا عشر ميلاً عن سميساط، خاوية على عروشها a small town in the province of Aleppo, twelve miles from Samosata. Attestation of name دُلوك in the Muʿjam al-buldān of Yāqūt al-Ḥamawī.",
          "type" : "settlement" } },
      
      { "type" : "Feature",
        "geometry" : 
        { "type" : "Point",
          "coordinates" : 
          [ 44.863615,
            32.4997726 ] },
        "properties" : 
        { "uri" : "http:\/\/syriaca.org\/place\/4201",
          "name" : "al-Nil",
          "type" : "settlement" } },
      
      { "type" : "Feature",
        "geometry" : 
        { "type" : "Point",
          "coordinates" : 
          [ 66.07483,
            37 ] },
        "properties" : 
        { "uri" : "http:\/\/syriaca.org\/place\/4229",
          "name" : "Bactria",
          "type" : "region" } },
      
      { "type" : "Feature",
        "geometry" : 
        { "type" : "Point",
          "coordinates" : 
          [ 56.729889,
            24.342 ] },
        "properties" : 
        { "uri" : "http:\/\/syriaca.org\/place\/2880",
          "name" : "Mazun — ܡܙܘܢ",
          "desc" : "A diocese of the southeastern Arabian Peninsula on the shores of the Persian Gulf Attestation of name ܡܙܘܢ in the Synodicon Orientale. Attestation of name ܡܙܘܢ in the Synodicon Orientale. Attestation of name ܡܙܘܢ in the Synodicon Orientale.",
          "type" : "diocese" } },
      
      { "type" : "Feature",
        "geometry" : 
        { "type" : "Point",
          "coordinates" : 
          [ 41.616667,
            37.316667 ] },
        "properties" : 
        { "uri" : "http:\/\/syriaca.org\/place\/49",
          "name" : "Beth Sbirino — ܒܝܬ ܣܒܝܪܝܢܐ",
          "desc" : "A village in Ṭur ʿAbdin.",
          "type" : "settlement" } },
      
      { "type" : "Feature",
        "geometry" : 
        { "type" : "Point",
          "coordinates" : 
          [ 41.216667,
            37.05 ] },
        "properties" : 
        { "uri" : "http:\/\/syriaca.org\/place\/160",
          "name" : "Qamishli — ܒܝܬ ܙ̈ܠܐ",
          "desc" : "A modern city just south of Nisibis.",
          "type" : "settlement" } },
      
      { "type" : "Feature",
        "geometry" : 
        { "type" : "Point",
          "coordinates" : 
          [ 33.93333,
            36.36667 ] },
        "properties" : 
        { "uri" : "http:\/\/syriaca.org\/place\/174",
          "name" : "Seleucia",
          "desc" : "A port city of Isauria. Attestation of name سَلِيقِية in the Muʿjam al-buldān of Yāqūt al-Ḥamawī. This place shares a name with one or more distinct places.",
          "type" : "settlement" } },
      
      { "type" : "Feature",
        "geometry" : 
        { "type" : "Point",
          "coordinates" : 
          [ 27.8346031262,
            37.8598379245 ] },
        "properties" : 
        { "uri" : "http:\/\/syriaca.org\/place\/2857",
          "name" : "Tralles — ܛܪܠܝܘ",
          "desc" : "A city in Caria An important city in Late Antiquity in the region of Caria in western Asia minor. Caria",
          "type" : "settlement" } },
      
      { "type" : "Feature",
        "geometry" : 
        { "type" : "Point",
          "coordinates" : 
          [ 36.62683,
            32.85359 ] },
        "properties" : 
        { "uri" : "http:\/\/syriaca.org\/place\/158",
          "name" : "Philippopolis",
          "desc" : "A town east of Tiberias in the Roman province of Arabia. Attestation of name شهبة in the Muʿjam al-buldān of Yāqūt al-Ḥamawī. This place shares a name with one or more distinct places.",
          "type" : "settlement" } },
      
      { "type" : "Feature",
        "geometry" : 
        { "type" : "Point",
          "coordinates" : 
          [ 44.524444,
            36.6125 ] },
        "properties" : 
        { "uri" : "http:\/\/syriaca.org\/place\/164",
          "name" : "Rāwandūz",
          "desc" : "A town northeast of Arbela and east of ʿAqra. This place shares a name with one or more distinct places. This place shares a location with one or more distinct places that should not be confused with one another.",
          "type" : "settlement" } },
      
      { "type" : "Feature",
        "geometry" : 
        { "type" : "Point",
          "coordinates" : 
          [ 32.75,
            26.25 ] },
        "properties" : 
        { "uri" : "http:\/\/syriaca.org\/place\/2847",
          "name" : "Thebais — ܬܐܒܝܣ",
          "desc" : "A region of Egypt One of the provinces into which Roman Egypt was subdivided, the Thebais formed the southern part of Egypt. Egypt",
          "type" : "region" } },
      
      { "type" : "Feature",
        "geometry" : 
        { "type" : "Point",
          "coordinates" : 
          [ 49.8593473,
            32.0283799 ] },
        "properties" : 
        { "uri" : "http:\/\/syriaca.org\/place\/4205",
          "name" : "Gilgird",
          "type" : "settlement" } },
      
      { "type" : "Feature",
        "geometry" : 
        { "type" : "Point",
          "coordinates" : 
          [ 36.94896,
            36.73466 ] },
        "properties" : 
        { "uri" : "http:\/\/syriaca.org\/place\/65",
          "name" : "Cyrrhus — ܩܘܪܘܣ",
          "desc" : "An ancient and medieval city 70 km north of Aleppo. Attestation of name قُوْرُس in the Muʿjam al-buldān of Yāqūt al-Ḥamawī.",
          "type" : "settlement" } },
      
      { "type" : "Feature",
        "geometry" : 
        { "type" : "Point",
          "coordinates" : 
          [ 50.0266708971,
            36.8140460017 ] },
        "properties" : 
        { "uri" : "http:\/\/syriaca.org\/place\/4239",
          "name" : "Dailam",
          "type" : "region" } },
      
      { "type" : "Feature",
        "geometry" : 
        { "type" : "Point",
          "coordinates" : 
          [ 28.971944,
            41.002778 ] },
        "properties" : 
        { "uri" : "http:\/\/syriaca.org\/place\/5641",
          "name" : "Sergius and Bacchus, Church of - ܒܝܬ ܩܕܝܫܐ ܡܪܝ ܣܪܓܝܣ",
          "desc" : "While there is some debate as to whether Justinian started the construction of this church before or after his accession to the imperial throne in 527, it was certainly completed by the mid-530s. It was located to the south-west of the Great Palace, directly adjacent to the Hormisdas Palace. There also was a monastery which housed many miaphysite monks and clerics during the 530s and 540s. Constantinople",
          "type" : "church" } },
      
      { "type" : "Feature",
        "geometry" : 
        { "type" : "Point",
          "coordinates" : 
          [ 30.470512,
            38.072539 ] },
        "properties" : 
        { "uri" : "http:\/\/syriaca.org\/place\/414",
          "name" : "Sozopolis — ܣܘܙܘܦܘܠܝܣ",
          "desc" : "ܒܰܐܩܠܝܡܐ ܥܰܬܝܩܳܐ ܕܒܝܣܝܺܕܝܗ ܒܰܐܣܝܰܐ ܙܥܘܪܬܳܐ ܠܡܰܥܪܒܳܐ ܕܩܳܘܢܝܰܐ ܚܰܪܝܒ (ܘܗܘ ܕܚܰܬܝܺܬ ܠܓܰܪܒܝܳܐ ܕܺܣܒܰܐܪܛܰܗ) في قطر بيسيدية القديم بآسيا الصغرى، في القسم الغربي من ولاية قونية مندرسة. a town in Pisidia in Asia Minor, west of Konya, no longer in existence.",
          "type" : "settlement" } },
      
      { "type" : "Feature",
        "geometry" : 
        { "type" : "Point",
          "coordinates" : 
          [ 44.5720482,
            39.8812229 ] },
        "properties" : 
        { "uri" : "http:\/\/syriaca.org\/place\/4007",
          "name" : "Artaxata",
          "type" : "settlement" } },
      
      { "type" : "Feature",
        "geometry" : 
        { "type" : "Point",
          "coordinates" : 
          [ 45.9319925,
            33.123643 ] },
        "properties" : 
        { "uri" : "http:\/\/syriaca.org\/place\/4013",
          "name" : "Beth Daraye",
          "type" : "diocese" } },
      
      { "type" : "Feature",
        "geometry" : 
        { "type" : "Point",
          "coordinates" : 
          [ 40.235101,
            37.937557 ] },
        "properties" : 
        { "uri" : "http:\/\/syriaca.org\/place\/399",
          "name" : "Yoḥannan Urṭaya — ܕܝܪܐ ܕܡܪܝ ܝܘܚܢܢ ܕܐܘܪ̈ܛܝܐ",
          "desc" : "A monastery north of Amid. ܒܢܳܝܗܝ ܗܳܢܐ ܥܢܘܳܝܐ ܒܰܫܒܳܒܘܬܗ̇ ܕܐܳܡܝܕ ܫܢܰܬ 590 ܐܰܦܩ ܬܠܳܬܐ ܐܶܦܝܣ̈ܩܘܦܐ ܗܰܘ ܕܶܝܢ ܕܛܰܒܝܒ ܒܗܘܢ ܝܘܚܰܢܢ ܕܐܶܦܣܘܣ ܘܠܐ ܦܓܰܥܢܢ ܒܛܶܐܒܐ ܥܠܰܘܗܝ ܒܳܬܰܪ ܫܢܰܬ 600 . بناه هذا الناسك في جوار ديار بكر سنة 390 انجب ثلاثة أساقفة أشهرهم يوحنا الافسسي المؤرخ 587 + ولم نقف له على خبر بعد سنة 600. John the ascetic built this monastery in 390 near Diyarbakir. It produced three bishops, the most famous of whom is John of Ephesus, the historian (d. 587). We know nothing about it after 600.",
          "type" : "monastery" } },
      
      { "type" : "Feature",
        "geometry" : 
        { "type" : "Point",
          "coordinates" : 
          [ 45.1,
            37.55 ] },
        "properties" : 
        { "uri" : "http:\/\/syriaca.org\/place\/206",
          "name" : "Urmia — ܐܘܪܡܝܐ",
          "desc" : "Urmia (Urūmiyya, Rīzāya), a city in northwest Iran, west of Lake Urmia, is first mentioned in E.-Syr. sources in 1111, whereas the mentioning of bishops in Azerbaijan (Hoshaʿ of Ganzak in 486, Ḥenanishoʿ in 605), testify to earlier presence of the Ch. of E. in this region. 568. Urmia Attestation of name أُرْميَة in the Muʿjam al-buldān of Yāqūt al-Ḥamawī. This place shares a name with one or more distinct places. This place shares a location with one or more distinct places that should not be confused with one another.",
          "type" : "settlement" } },
      
      { "type" : "Feature",
        "geometry" : 
        { "type" : "Point",
          "coordinates" : 
          [ 45.3879547,
            36.9554476 ] },
        "properties" : 
        { "uri" : "http:\/\/syriaca.org\/place\/4198",
          "name" : "Solduz",
          "type" : "settlement" } },
      
      { "type" : "Feature",
        "geometry" : 
        { "type" : "Point",
          "coordinates" : 
          [ 37.518964,
            35.809864 ] },
        "properties" : 
        { "uri" : "http:\/\/syriaca.org\/place\/574",
          "name" : "Anasartha",
          "desc" : "A Roman village southeast of Aleppo. Attestation of name خناصرة in the Muʿjam al-buldān of Yāqūt al-Ḥamawī.",
          "type" : "settlement" } },
      
      { "type" : "Feature",
        "geometry" : 
        { "type" : "Point",
          "coordinates" : 
          [ 37.233333,
            34.233333 ] },
        "properties" : 
        { "uri" : "http:\/\/syriaca.org\/place\/212",
          "name" : "al-Qaryatayn — ܩܪܝܬܝܢ",
          "desc" : "A town northeast of Damascus and southeast of Ḥimṣ. ܐܰܬܪܰܐ ܗܘ ܕܒܐܘܚܕܳܢܐ ܕܰܚܡܶܨ ܡܰܪܕܶܐ ܬܪܶܝܢ ܝܰܘܡܝ̈ܢ ܒܐܘܪܚܳܐ ܕܡܰܕܒܪܐ ܕܒܶܝܬ ܠܗ̇ ܘܰܠܣܰܟܢܗ ܘܐܪܟ. بليدة من اعمال حمص مرحلة يومين عنها في طريق البرية بينها وبين سخنة ارك. a small town in the province of Ḥomṣ, about ten day journey from there on the way to the desert between Sukhna and Arak. Attestation of name القريتان in the Muʿjam al-buldān of Yāqūt al-Ḥamawī.",
          "type" : "settlement" } },
      
      { "type" : "Feature",
        "geometry" : 
        { "type" : "Point",
          "coordinates" : 
          [ 50.836721,
            28.911919 ] },
        "properties" : 
        { "uri" : "http:\/\/syriaca.org\/place\/4173",
          "name" : "Rev Ardashir",
          "type" : "settlement" } },
      
      { "type" : "Feature",
        "geometry" : 
        { "type" : "Point",
          "coordinates" : 
          [ 33.7107325,
            16.9373149 ] },
        "properties" : 
        { "uri" : "http:\/\/syriaca.org\/place\/4167",
          "name" : "Meroë",
          "type" : "settlement" } },
      
      { "type" : "Feature",
        "geometry" : 
        { "type" : "Point",
          "coordinates" : 
          [ 39.5,
            19 ] },
        "properties" : 
        { "uri" : "http:\/\/syriaca.org\/place\/2933",
          "name" : "Red Sea",
          "desc" : "The sea between Egypt and Arabia The sea between Egypt\/Nubia and Arabia is mentioned in Joh. Eph., EH 4.51 and 53. Attestation of names البحر الأخير, خليج ايلة, and بحر جدة ومصر, in the Kitāb al-aʿlāq al-nafīsa of Aḥmad ibn ʿUmar Ibn Rustah.",
          "type" : "open-water" } },
      
      { "type" : "Feature",
        "geometry" : 
        { "type" : "Point",
          "coordinates" : 
          [ 73.1249356,
            19.2425206 ] },
        "properties" : 
        { "uri" : "http:\/\/syriaca.org\/place\/4371",
          "name" : "Calliana",
          "type" : "settlement" } },
      
      { "type" : "Feature",
        "geometry" : 
        { "type" : "Point",
          "coordinates" : 
          [ 113.2949638,
            40.0926497 ] },
        "properties" : 
        { "uri" : "http:\/\/syriaca.org\/place\/4417",
          "name" : "Datong",
          "type" : "settlement" } },
      
      { "type" : "Feature",
        "geometry" : 
        { "type" : "Point",
          "coordinates" : 
          [ 105.7600594,
            46.160691 ] },
        "properties" : 
        { "uri" : "http:\/\/syriaca.org\/place\/4403",
          "name" : "Sum Huh Burd",
          "type" : "settlement" } },
      
      { "type" : "Feature",
        "geometry" : 
        { "type" : "Point",
          "coordinates" : 
          [ 100.4550362,
            38.9363126 ] },
        "properties" : 
        { "uri" : "http:\/\/syriaca.org\/place\/4359",
          "name" : "Ganzhou",
          "desc" : "See also one or more related places.",
          "type" : "settlement" } },
      
      { "type" : "Feature",
        "geometry" : 
        { "type" : "Point",
          "coordinates" : 
          [ 71.2018625264,
            40.6222461978 ] },
        "properties" : 
        { "uri" : "http:\/\/syriaca.org\/place\/4358",
          "name" : "Ferghana",
          "type" : "region" } },
      
      { "type" : "Feature",
        "geometry" : 
        { "type" : "Point",
          "coordinates" : 
          [ 113.25,
            23.116667 ] },
        "properties" : 
        { "uri" : "http:\/\/syriaca.org\/place\/4364",
          "name" : "Guangzhou",
          "type" : "settlement" } },
      
      { "type" : "Feature",
        "geometry" : 
        { "type" : "Point",
          "coordinates" : 
          [ 47.9999999,
            12.0000001 ] },
        "properties" : 
        { "uri" : "http:\/\/syriaca.org\/place\/2932",
          "name" : "Gulf of Aden",
          "desc" : "The bay which separates the Arabian Peninsula from the Horn of Africa Attestation of name الخليج البربري in the Kitāb al-aʿlāq al-nafīsa of Aḥmad ibn ʿUmar Ibn Rustah.",
          "type" : "open-water" } },
      
      { "type" : "Feature",
        "geometry" : 
        { "type" : "Point",
          "coordinates" : 
          [ 44.00924,
            36.191265 ] },
        "properties" : 
        { "uri" : "http:\/\/syriaca.org\/place\/993",
          "name" : "Adiabene",
          "desc" : "Classical Adiabene, Syriac Ḥadyāb, refers to the region between the Upper and Lower Zab rivers, from the Tigris in the west to Mt. Ṣalāḥ al-dīn (= Mt. Pirmum) in the east. 20. Adiabene",
          "type" : "region" } },
      
      { "type" : "Feature",
        "geometry" : 
        { "type" : "Point",
          "coordinates" : 
          [ 39.6110988,
            24.4689182 ] },
        "properties" : 
        { "uri" : "http:\/\/syriaca.org\/place\/4166",
          "name" : "Medina",
          "type" : "settlement" } },
      
      { "type" : "Feature",
        "geometry" : 
        { "type" : "Point",
          "coordinates" : 
          [ 38.7833261,
            35.9013918 ] },
        "properties" : 
        { "uri" : "http:\/\/syriaca.org\/place\/4199",
          "name" : "Sura",
          "type" : "settlement" } },
      
      { "type" : "Feature",
        "geometry" : 
        { "type" : "Point",
          "coordinates" : 
          [ 40.75,
            36.483333 ] },
        "properties" : 
        { "uri" : "http:\/\/syriaca.org\/place\/213",
          "name" : "al-Ḥasake — ܚܣܝܟܐ",
          "desc" : "A city south of Mardin and southeast of Reshʿayna.",
          "type" : "settlement" } },
      
      { "type" : "Feature",
        "geometry" : 
        { "type" : "Point",
          "coordinates" : 
          [ 43.38,
            38.494167 ] },
        "properties" : 
        { "uri" : "http:\/\/syriaca.org\/place\/207",
          "name" : "Van",
          "desc" : "A city southeast of Lake Van. Attestation of name وان in the Muʿjam al-buldān of Yāqūt al-Ḥamawī. This place shares a name with one or more distinct places. This place shares a location with one or more distinct places that should not be confused with one another.",
          "type" : "settlement" } },
      
      { "type" : "Feature",
        "geometry" : 
        { "type" : "Point",
          "coordinates" : 
          [ 38.90284,
            37.105188 ] },
        "properties" : 
        { "uri" : "http:\/\/syriaca.org\/place\/398",
          "name" : "Mor Yaʿqub Malpono — ܕܝܪܐ ܕܡܪܝ ܝܥܩܘܒ ܡܠܦܢܐ",
          "desc" : "ܒܛܘܪܐ ܕܐܘܪܗܳܝ ܒܬܰܝܡܢܳܗ̇ ܕܰܡܕܝܢܬܐ ܡܰܪܕܶܐ ܫܳܥܳܐ ܘܦܶܠܓܳܐ. ܐܶܬܒܢܝ ܒܡܰܐܬܰܐ ܚܡܝܫܳܝܬܐ ܘܰܕܟܝܪ ܠܗ ܠܝܘܚܰܢܢ ܕܐܶܦܣܘܣ ܫܢܰܬ 519 ܚܰܕܬܗ ܪܝܫܳܢܗ ܕܰܝܪܳܝܐ ܝܘܚܰܢܢ ܣܪܘܓܳܝܳܐ ܗܰܘ ܕܐܶܬܥܰܠܝ ܠܡܰܦܪܝܳܢܘܬܐ ܕܡܰܕܢܚܐ ܫܢܰܬ 1164 ܘܥܰܡܝܪ ܗܘܐ ܫܢܰܬ 1223 ܘܫܶܬܶܐܣܰܘ̈ܗܝ ܩܰܝܳܡ̈ܢ. في جبل الرها مسيرة ساعة ونصف جنوبي المدينة، شيد بناؤه في المئة الخامسة وذكره يوحنا الافسسي عام 519 جدده رئيسه الراهب يوحنا السروجي الذي رقي الى مفريانية المشرق عام 1164 كان عامرا سنة 1223 ورسومه ماثلة. in the Mount of Edessa, an hour and a half south of the city. It was built in the fifth century and was mentioned by John of Ephesus in his history in 519. It was renovated by its abbot, John of Sarug, who was elevated to the office of Maphryono of the East in 1164. It remained inhabited until 1223. Its ruins are still visible.",
          "type" : "monastery" } },
      
      { "type" : "Feature",
        "geometry" : 
        { "type" : "Point",
          "coordinates" : 
          [ 48.2537285,
            32.1887935 ] },
        "properties" : 
        { "uri" : "http:\/\/syriaca.org\/place\/415",
          "name" : "Susa — ܫܘܫ",
          "desc" : "ܐܰܬܪܰܐ ܗܘ ܒܟܳܘܙܣܬܰܐܢ ܐܰܘ ܒܰܐܬܪܐ ܕܗܘܙܳܝ̈ܐ ܘܗܽܘܝܘ ܫܘܫܰܢ ܥܰܬܝܩܬܳܐ. بلدة بخوزستان او الاهواز وهي شوشان القديمة. a town in Khuzistan (Ahwaz); the ancient Susa. Attestation of name السُوْس in the Muʿjam al-buldān of Yāqūt al-Ḥamawī. This place shares a name with one or more distinct places. This place shares a location with one or more distinct places that should not be confused with one another.",
          "type" : "settlement" } },
      
      { "type" : "Feature",
        "geometry" : 
        { "type" : "Point",
          "coordinates" : 
          [ 44.5812226667,
            33.094703 ] },
        "properties" : 
        { "uri" : "http:\/\/syriaca.org\/place\/58",
          "name" : "Ctesiphon — ܩܛܝܣܦܘܢ",
          "desc" : "Located on the Tigris, south of modern Baghdad. Ctesiphon was the imperial capital of the Sasanian Empire. Joh. Eph., EH 3.40 and 6.10 does not use the name Ctesiphon, but refers to it as the 'royal city'. 483. Seleucia-Ctesiphon ܬܰܪܬܝܢ ܡܕܝ̈ܢܳܢ ܕܒܰܚܕ̈ܕܐ ܣܒܝܣ̈ܢ ܘܡܶܬܩܰܪ̈ܝܳܢ ܡܕܝ̈ܢܳܬܐ ܐܶܡܐ ܕܰܡܕܝ̈ܢܬܳܐ ܕܦܳܪ̈ܣܳܝܐ ܣܰܐܣܰܐܢܳܝ̈ܐ ܠܬܰܝܡܢܳܗ̇ ܕܒܓܕܕ ܡܰܪܕܶܐ ܫܶܬ ܫܳܥܝ̈ܢ ܘܰܚܪܶܒ̈ܝ ܒܫܘܪܳܝ ܫܘܠܛܳܢܐ ܕܥܰܪ̈ܒܝܐ ܘܰܒܓܰܢܒܗܝܢ ܝܰܘܡܳܢ ܩܪܝܬܳܐ ܕܣܰܠܡܰܐܢ ܒܰܐܟ. مدينتان متصلتان سميتا بالمدائن عاصمة الفرس الساسانيين، جنوبي بغداد مسيرة ست ساعات، خربتا في صدر الفتح العربي وبجانبهما اليوم قرية سلمان باك. two connected cities. They were the capital of the Sassanids, situated about six hours journey south of Baghdad. Both these cities were destroyed at the beginning of the Arab conquest. Near their site is the present village of Salman Pak. Attestation of name طَيْسفون in the Muʿjam al-buldān of Yāqūt al-Ḥamawī. See also one or more related places.",
          "type" : "settlement" } },
      
      { "type" : "Feature",
        "geometry" : 
        { "type" : "Point",
          "coordinates" : 
          [ 64.412241,
            39.77754 ] },
        "properties" : 
        { "uri" : "http:\/\/syriaca.org\/place\/4238",
          "name" : "Bukhara",
          "type" : "settlement" } },
      
      { "type" : "Feature",
        "geometry" : 
        { "type" : "Point",
          "coordinates" : 
          [ 33.45,
            36.63333 ] },
        "properties" : 
        { "uri" : "http:\/\/syriaca.org\/place\/64",
          "name" : "Claudiopolis",
          "desc" : "A city of south-central Anatolia.",
          "type" : "settlement" } },
      
      { "type" : "Feature",
        "geometry" : 
        { "type" : "Point",
          "coordinates" : 
          [ 51.679191,
            32.65139 ] },
        "properties" : 
        { "uri" : "http:\/\/syriaca.org\/place\/830",
          "name" : "Ispahan",
          "desc" : "Attestation of name أَصبهان in the Muʿjam al-buldān of Yāqūt al-Ḥamawī.",
          "type" : "settlement" } },
      
      { "type" : "Feature",
        "geometry" : 
        { "type" : "Point",
          "coordinates" : 
          [ 40.954207,
            37.594831 ] },
        "properties" : 
        { "uri" : "http:\/\/syriaca.org\/place\/70",
          "name" : "Dayro d-Mor Abay — ܕܝܪܐ ܕܡܪܝ ܐܒܝ",
          "desc" : "A monastery near Qeleth in Ṭur ʿAbdin. ܣܳܗܕܐ ܦܳܪܣܳܝܐ ܠܓܰܪܒܰܝ ܩܶܠܬ ܩܪܝܬܳܐ ܡܰܪܕܶܐ ܩܰܛܝ̈ܢܢ. ܕܰܝܪܰܐ ܗܘ ܪܰܒܐ ܐܶܬܒܢܝ ܒܕܳܪܳܐ ܫܬܝܬܳܝܐ ܘܒܰܫܢܰܬ 1250 ܐܝܬ ܗܘܐ ܒܗ ܫܬܝܺܢ ܕܰܝܪ̈ܳܝܐ. ܟܶܢ ܗܘܐ ܒܶܝܬ ܟܘܪܣܝܳܐ ܕܐܶܦܣܩܘܦܳܐ. ܘܰܢܦܰܩ ܡܶܢܗ ܚܰܕ ܦܰܛܪܝܰܪܟܳܐ ܘܰܚܕܰܥܣܪ ܐܶܦܝ̈ܣܩܘܦܶܐ. ܘܰܚܕܳܪ̈ܰܝ ܫܢܰܬ 1700 ܥܰܠܥܶܠܘ ܙܰܒ̈ܢܐ ܒܐܢܳܫܰܘ̈ܗܝ ܘܚܰܪ̈ܒܳܬܗ ܩܰܝ̈ܡܳܢ الشهيد الفارسي شمالي قرية قلث مسيرة عشرين دقيقة؛ دير عظيم انشىء في القرن السادس وعام 1250 حوى ستين راهباً ثم صار كرسياً اسقفيا ونشأ منه بطريرك واحد عشر اسقفاً، عصف الدهر بأهله حوالي سنة 1700 واطلاله ماثلة the Persian martyr, is north of Qellith. It was a large monastery, established in the sixth century. In 1250 it had about sixty monks. Later, it became an episcopal see and from it came one Patriarch and eleven bishops. It was abandoned in 1700 and its ruins can still be seen.",
          "type" : "monastery" } },
      
      { "type" : "Feature",
        "geometry" : 
        { "type" : "Point",
          "coordinates" : 
          [ 38.75,
            35.616667 ] },
        "properties" : 
        { "uri" : "http:\/\/syriaca.org\/place\/165",
          "name" : "Sergiopolis",
          "desc" : "A town southwest of Kallinikos. The city of Rusafa in the Syrian desert became known as Sergiopolis in Late Antiquity because of the martyr Sergius. Joh. Eph., EH 6.4 refers to it under its former name Rusafa. Attestation of name رُصافة الشام in the Muʿjam al-buldān of Yāqūt al-Ḥamawī. Syria",
          "type" : "settlement" } },
      
      { "type" : "Feature",
        "geometry" : 
        { "type" : "Point",
          "coordinates" : 
          [ 49.9,
            26.6 ] },
        "properties" : 
        { "uri" : "http:\/\/syriaca.org\/place\/2878",
          "name" : "Ḥaṭṭa — ܚܛܐ",
          "desc" : "A diocese based in northeastern Arabia near al-Qaṭīf Attestation of name ܚܛܐ in the Synodicon Orientale.",
          "type" : "diocese" } },
      
      { "type" : "Feature",
        "geometry" : 
        { "type" : "Point",
          "coordinates" : 
          [ 31.2706,
            29.7497813 ] },
        "properties" : 
        { "uri" : "http:\/\/syriaca.org\/place\/629",
          "name" : "Nile",
          "desc" : "The major river of Egypt. Attestation of name النِّيل in the Muʿjam al-buldān of Yāqūt al-Ḥamawī.",
          "type" : "river" } },
      
      { "type" : "Feature",
        "geometry" : 
        { "type" : "Point",
          "coordinates" : 
          [ 29.095556,
            25.515833 ] },
        "properties" : 
        { "uri" : "http:\/\/syriaca.org\/place\/601",
          "name" : "Kellis",
          "desc" : "A village in Egypt.",
          "type" : "settlement" } },
      
      { "type" : "Feature",
        "geometry" : 
        { "type" : "Point",
          "coordinates" : 
          [ 35.89281,
            36.41182 ] },
        "properties" : 
        { "uri" : "http:\/\/syriaca.org\/place\/173",
          "name" : "Rhosos",
          "desc" : "A town northwest of Antioch on the Bay of Iskenderun. Attestation of name رُوْسيس in the Muʿjam al-buldān of Yāqūt al-Ḥamawī.",
          "type" : "settlement" } },
      
      { "type" : "Feature",
        "geometry" : 
        { "type" : "Point",
          "coordinates" : 
          [ 36.292,
            33.513 ] },
        "properties" : 
        { "uri" : "http:\/\/syriaca.org\/place\/66",
          "name" : "Damascus — ܕܪܡܣܘܩ",
          "desc" : "Syriac Darmsuq and Arabic Dimashq. City in Syria and the seat at present of the Syr. Orth. Patriarchate. 148. Damascus Attestation of name دِمَشق in the Muʿjam al-buldān of Yāqūt al-Ḥamawī. This place shares a name with one or more distinct places. This place shares a location with one or more distinct places that should not be confused with one another.",
          "type" : "settlement" } },
      
      { "type" : "Feature",
        "geometry" : 
        { "type" : "Point",
          "coordinates" : 
          [ 46.830039,
            33.5567384 ] },
        "properties" : 
        { "uri" : "http:\/\/syriaca.org\/place\/4212",
          "name" : "Masabadan",
          "type" : "region" } },
      
      { "type" : "Feature",
        "geometry" : 
        { "type" : "Point",
          "coordinates" : 
          [ 36.848848,
            36.255349 ] },
        "properties" : 
        { "uri" : "http:\/\/syriaca.org\/place\/198",
          "name" : "Tell ʿAda — ܬܠܥܕܐ",
          "desc" : "A village 48 km. west of Aleppo known for the nearby Monastery of Tell ʿAda. This place shares a name with one or more distinct places.",
          "type" : "settlement" } },
      
      { "type" : "Feature",
        "geometry" : 
        { "type" : "Point",
          "coordinates" : 
          [ 40.210556,
            37.981944 ] },
        "properties" : 
        { "uri" : "http:\/\/syriaca.org\/place\/8",
          "name" : "Amida — ܐܡܝܕ",
          "desc" : "City in upper Mesopotamia. 32. Amid ܡܕܺܝܢܬܐ ܚܰܣܝ̣ܢܬܐ ܕܕܶܩܠܰܬ ܚܳܕܰܪ ܠܣܘܓܐܗ̇. مدينة قديمة حصينة دجلة محيطة باكثرها an ancient fortified city, virtually surrounded by the Tigris. Attestation of name آمد in the Muʿjam al-buldān of Yāqūt al-Ḥamawī. This place shares a name with one or more distinct places. This place shares a location with one or more distinct places that should not be confused with one another.",
          "type" : "settlement" } },
      
      { "type" : "Feature",
        "geometry" : 
        { "type" : "Point",
          "coordinates" : 
          [ 33.9645553,
            36.5840115 ] },
        "properties" : 
        { "uri" : "http:\/\/syriaca.org\/place\/4038",
          "name" : "Olba",
          "type" : "settlement" } },
      
      { "type" : "Feature",
        "geometry" : 
        { "type" : "Point",
          "coordinates" : 
          [ 43.640686,
            33.4000693333 ] },
        "properties" : 
        { "uri" : "http:\/\/syriaca.org\/place\/211",
          "name" : "Peruz Shapur — ܐܢܒܐܪ",
          "desc" : "Large Sasanian city on the eastern bank of the Euphrates, the ruins are near present-day Falluja, ca. 60 km. west of Baghdad. 35. al-Anbār Attestation of names فيروزسابور and الأَنبار in the Muʿjam al-buldān of Yāqūt al-Ḥamawī.",
          "type" : "settlement" } },
      
      { "type" : "Feature",
        "geometry" : 
        { "type" : "Point",
          "coordinates" : 
          [ 36.2038547331,
            34.0063794317 ] },
        "properties" : 
        { "uri" : "http:\/\/syriaca.org\/place\/577",
          "name" : "Baʿalbak",
          "desc" : "A city in Lebanon. The city of Heliopolis, in Syriac-Armaic known as Baalbek, housed one of the largest pagan cult centres in the eastern Mediterranean. Among late antique Christian authors, it was famous for the obstinacy with which the majority of the inhabitants clung to pagan rites. For instance, Joh. Eph., EH 3.27 mentions the dispatch of the imperial official Theophilus in 579\/80 to lead an investigation against pagans in the city. Attestation of name بَعْلَبك in the Muʿjam al-buldān of Yāqūt al-Ḥamawī.",
          "type" : "settlement" } },
      
      { "type" : "Feature",
        "geometry" : 
        { "type" : "Point",
          "coordinates" : 
          [ 33.921682,
            28.58771 ] },
        "properties" : 
        { "uri" : "http:\/\/syriaca.org\/place\/563",
          "name" : "Mount Sinai — ܛܘܪܐ ܕܣܝܢܝ",
          "desc" : "A mountain in the Sinai Peninsula. An important Christian pilgrimage site in late antiquity as it was believed to be the place where Moses received the ten commandments from God. Justinian erected a fortified monastic complex between 548 and 565. Gregory, patriarch of Antioch from 570 to 592, was archimandrite of this monastery prior to his accession as patriarch. Attestation of name سِينا in the Muʿjam al-buldān of Yāqūt al-Ḥamawī. Egypt",
          "type" : "mountain" } },
      
      { "type" : "Feature",
        "geometry" : 
        { "type" : "Point",
          "coordinates" : 
          [ 37.86555,
            37.110367 ] },
        "properties" : 
        { "uri" : "http:\/\/syriaca.org\/place\/205",
          "name" : "Urima — ܐܘܪܝܡ",
          "desc" : "A town on the Euphrates west of Edessa. ܥܠ ܣܶܦܰܬ ܦܪܳܬ ܠܘܳܬ ܫܰܡܺܝܫܬ ܕܚܰܪܝ̣ܒܐ. على ضفة الفرات عند سميساط خربة a ruined town on the Euphrates, near Samosata. Attestation of name أُوْرِم in the Muʿjam al-buldān of Yāqūt al-Ḥamawī. Not the same place as Halfeti.",
          "type" : "settlement" } },
      
      { "type" : "Feature",
        "geometry" : 
        { "type" : "Point",
          "coordinates" : 
          [ 56.743269,
            24.3610932 ] },
        "properties" : 
        { "uri" : "http:\/\/syriaca.org\/place\/4164",
          "name" : "Ṣuḥar",
          "type" : "settlement" } },
      
      { "type" : "Feature",
        "geometry" : 
        { "type" : "Point",
          "coordinates" : 
          [ 56.9790459,
            27.0819012 ] },
        "properties" : 
        { "uri" : "http:\/\/syriaca.org\/place\/4158",
          "name" : "Hormuz",
          "type" : "settlement" } },
      
      { "type" : "Feature",
        "geometry" : 
        { "type" : "Point",
          "coordinates" : 
          [ 98.160281,
            19.991394 ] },
        "properties" : 
        { "uri" : "http:\/\/syriaca.org\/place\/4399",
          "name" : "Salween River",
          "type" : "river" } },
      
      { "type" : "Feature",
        "geometry" : 
        { "type" : "Point",
          "coordinates" : 
          [ 31.284786,
            30.131757 ] },
        "properties" : 
        { "uri" : "http:\/\/syriaca.org\/place\/2924",
          "name" : "ʿAyn Shams",
          "desc" : "A city in Egypt Attestation of name عين شمس in the Kitāb al-aʿlāq al-nafīsa of Aḥmad ibn ʿUmar Ibn Rustah.",
          "type" : "settlement" } },
      
      { "type" : "Feature",
        "geometry" : 
        { "type" : "Point",
          "coordinates" : 
          [ 116.0801697,
            38.4357073 ] },
        "properties" : 
        { "uri" : "http:\/\/syriaca.org\/place\/4366",
          "name" : "Hejian",
          "type" : "settlement" } },
      
      { "type" : "Feature",
        "geometry" : 
        { "type" : "Point",
          "coordinates" : 
          [ 116.1849689,
            42.3580999 ] },
        "properties" : 
        { "uri" : "http:\/\/syriaca.org\/place\/4400",
          "name" : "Shangdu",
          "type" : "settlement" } },
      
      { "type" : "Feature",
        "geometry" : 
        { "type" : "Point",
          "coordinates" : 
          [ 109.0752053,
            13.9286679 ] },
        "properties" : 
        { "uri" : "http:\/\/syriaca.org\/place\/4414",
          "name" : "Vijaya",
          "type" : "settlement" } },
      
      { "type" : "Feature",
        "geometry" : 
        { "type" : "Point",
          "coordinates" : 
          [ 79.2597126217,
            10.4172425807 ] },
        "properties" : 
        { "uri" : "http:\/\/syriaca.org\/place\/4429",
          "name" : "Coromandel Coast",
          "type" : "region" } },
      
      { "type" : "Feature",
        "geometry" : 
        { "type" : "Point",
          "coordinates" : 
          [ 119.9966025,
            26.8858756 ] },
        "properties" : 
        { "uri" : "http:\/\/syriaca.org\/place\/4415",
          "name" : "Shangwan",
          "type" : "settlement" } },
      
      { "type" : "Feature",
        "geometry" : 
        { "type" : "Point",
          "coordinates" : 
          [ 68.9642953547,
            35.3092171857 ] },
        "properties" : 
        { "uri" : "http:\/\/syriaca.org\/place\/4367",
          "name" : "Hindu Kush Range",
          "type" : "mountain" } },
      
      { "type" : "Feature",
        "geometry" : 
        { "type" : "Point",
          "coordinates" : 
          [ 19.610106,
            44.966447 ] },
        "properties" : 
        { "uri" : "http:\/\/syriaca.org\/place\/2716",
          "name" : "Sirmium — ܣܪܡܝܘܢ",
          "desc" : "A city in Pannonia An important imperial residence close to the Danube in Pannonia in the 4th century, Sirmium fell to Gothic and Gepid groups in the 5th century. The Romans reconquered it in the late 560s, but it definitely fell to the Avars in the early 580s, as recorded in Joh. Eph., EH 6.32 and 33.",
          "type" : "settlement" } },
      
      { "type" : "Feature",
        "geometry" : 
        { "type" : "Point",
          "coordinates" : 
          [ 102.847778,
            47.210278 ] },
        "properties" : 
        { "uri" : "http:\/\/syriaca.org\/place\/4398",
          "name" : "Qaraqorum",
          "type" : "settlement" } },
      
      { "type" : "Feature",
        "geometry" : 
        { "type" : "Point",
          "coordinates" : 
          [ 63.3688210556,
            22.2177615587 ] },
        "properties" : 
        { "uri" : "http:\/\/syriaca.org\/place\/4159",
          "name" : "Indian Ocean",
          "type" : "region" } },
      
      { "type" : "Feature",
        "geometry" : 
        { "type" : "Point",
          "coordinates" : 
          [ 48.3246356,
            14.0099403 ] },
        "properties" : 
        { "uri" : "http:\/\/syriaca.org\/place\/4171",
          "name" : "Cane Emporium",
          "type" : "settlement" } },
      
      { "type" : "Feature",
        "geometry" : 
        { "type" : "Point",
          "coordinates" : 
          [ 38.198554,
            35.976326 ] },
        "properties" : 
        { "uri" : "http:\/\/syriaca.org\/place\/589",
          "name" : "Dibsi Faraj",
          "desc" : "A former village and archaeological site on the Euphrates now beneath al-Assad Lake.",
          "type" : "settlement" } },
      
      { "type" : "Feature",
        "geometry" : 
        { "type" : "Point",
          "coordinates" : 
          [ 39.8261851,
            21.4225098 ] },
        "properties" : 
        { "uri" : "http:\/\/syriaca.org\/place\/4165",
          "name" : "Mecca",
          "type" : "settlement" } },
      
      { "type" : "Feature",
        "geometry" : 
        { "type" : "Point",
          "coordinates" : 
          [ 45.6401038,
            31.3245702 ] },
        "properties" : 
        { "uri" : "http:\/\/syriaca.org\/place\/4039",
          "name" : "Orchoe",
          "type" : "settlement" } },
      
      { "type" : "Feature",
        "geometry" : 
        { "type" : "Point",
          "coordinates" : 
          [ 43.5710049,
            40.5085461 ] },
        "properties" : 
        { "uri" : "http:\/\/syriaca.org\/place\/4005",
          "name" : "Ani",
          "type" : "settlement" } },
      
      { "type" : "Feature",
        "geometry" : 
        { "type" : "Point",
          "coordinates" : 
          [ 44.4207716,
            32.5362493 ] },
        "properties" : 
        { "uri" : "http:\/\/syriaca.org\/place\/4011",
          "name" : "Babylon",
          "type" : "settlement" } },
      
      { "type" : "Feature",
        "geometry" : 
        { "type" : "Point",
          "coordinates" : 
          [ 36.725833,
            35.903333 ] },
        "properties" : 
        { "uri" : "http:\/\/syriaca.org\/place\/5643",
          "name" : "Sirmin - ܣܪܡܝܢ",
          "desc" : "A village 60km southeast of Antioch. John III Scholasticus, patriarch of Constantinople 565-577, hailed from this place. Syria",
          "type" : "settlement" } },
      
      { "type" : "Feature",
        "geometry" : 
        { "type" : "Point",
          "coordinates" : 
          [ 35.905556,
            37.263889 ] },
        "properties" : 
        { "uri" : "http:\/\/syriaca.org\/place\/9",
          "name" : "ʿAyn Zarba — ܥܝܢ ܙܪܒܐ",
          "desc" : "A city in Cilicia, a provincial capital of the Roman Empire and for a time the capital of the Armenian Kingdom of Cilicia. ܡܕܝܢܬܳܐ ܕܰܒܩܝܠܺܝܩܝܰܐ ܣܺܝܡܳܐ ܗܘܳܬ ܥܰܠ ܢܗܰܪ ܓܺܝ̣ܚܘܢ ܘܝܰܘܡܳܢ ܗܘܳܬ ܩܪܺܝܬܳܐ ܕܡܶܬܶܐܡܰܪ ܠܳܗ̇ ܐܰܢܐܙܘܪܐ. مدينة في قيليقية كانت واقعة على نهر جيحان وامست الان قرية يقال لها انازروه. a town in Cilicia, on the river Jījān. Today it is a small village called Anāzūra. Attestation of name عينُ زَربَى in the Muʿjam al-buldān of Yāqūt al-Ḥamawī.",
          "type" : "settlement" } },
      
      { "type" : "Feature",
        "geometry" : 
        { "type" : "Point",
          "coordinates" : 
          [ 48.4084225,
            34.5512105 ] },
        "properties" : 
        { "uri" : "http:\/\/syriaca.org\/place\/4207",
          "name" : "Rudavar",
          "desc" : "See also one or more related places.",
          "type" : "settlement" } },
      
      { "type" : "Feature",
        "geometry" : 
        { "type" : "Point",
          "coordinates" : 
          [ 47.4595428,
            31.3000599 ] },
        "properties" : 
        { "uri" : "http:\/\/syriaca.org\/place\/4213",
          "name" : "Nahargur",
          "type" : "settlement" } },
      
      { "type" : "Feature",
        "geometry" : 
        { "type" : "Point",
          "coordinates" : 
          [ 40.948011,
            37.1783845 ] },
        "properties" : 
        { "uri" : "http:\/\/syriaca.org\/place\/67",
          "name" : "Dara — ܕܪܐ",
          "desc" : "A Roman city between Mardin and Nisibis. Located in Roman Mesopotamia close to the Persian border, Dara was built by the emperor Anastasius in the early 6th century as a fortress city to confront the Persian stronghold of Nisibis. The fall of the city to the Persians in 573 reportedly triggered Justin's lapse into madness. The Persian siege of the city is described in Joh. Eph., EH 6.5. ܡܕܝܺܢܬܐ ܗܝ ܕܒܰܦܫܦܘܽܠܐ ܕܛܘܪܐ ܒܶܝܬ ܢܨܺܝܒܝܺܢ ܠܡܰܪܕܺܝܢ ܐܶܬܝܰܬܒܰܬ ܫܢܰܬ 506 ܘܩܰܘܝܰܬ ܟܘܪܣܝܳܐ ܐܶܦܝܣܩܘܦܳܝܐ ܠܣܘܪ̈ܝܳܝܐ ܥܕܡܐ ܠܡܶܨܥܝ̈ܬܗ ܕܕܳܪܳܐ ܕܝ̄ܒ ܘܝܰܘܡܳܢ ܩܪܺܝܬܳܐ ܗܝ ܙܥܘܽܪܬܐ. بلدة في لحف جبل بين نصيبين وماردين مُصّرت عام 506م وظلت كرسيا اسقفيا للسريان حتى اواسط المئة الثانية عشرة وهي اليوم قرية حقيرة a town situated at the foot of the mountain between Nisibin and Mardin. Built in 506, it remained a seat of Syrian bishops until the middle of the twelfth century. Today it is an insignificant village. Attestation of name دارا in the Muʿjam al-buldān of Yāqūt al-Ḥamawī. This place shares a name with one or more distinct places.",
          "type" : "settlement" } },
      
      { "type" : "Feature",
        "geometry" : 
        { "type" : "Point",
          "coordinates" : 
          [ 40.04962,
            36.82584 ] },
        "properties" : 
        { "uri" : "http:\/\/syriaca.org\/place\/172",
          "name" : "Reshʿayna — ܪܝܫ ܥܝܢܐ",
          "desc" : "City on the Khabur, located in the eastern part of ancient Osrhoene and today straddling the Turkish-Syrian border, the Syrian part now bearing the name Raʾs al-ʿAyn and the Turkish part Ceylanpınar (earlier Resülayn). 455. Reshʿayna ܡܕܝܢܬܳܐ ܗܝ ܥܰܠ ܢܗܰܪ ܚܳܒܘܪ ܒܓܳܙܰܪܬܐ ܒܕܳܪܐ ܕܰܬܠܳܬܰܥܣܪ ܥܰܡܝܪܐ ܗܘܳܬ ܟܶܢ ܚܶܪܒܰܬ ܘܒܰܫܢܰܬ 1869 ܥܡܰܪܘ ܒܗ ܚܰܕ ܛܘܗܡܳܐ ܕܰܓܙܝܪ. ܟܶܢ ܐܶܬܘ ܠܗ̇ ܣܘܪ̈ܝܳܝܐ ܘܐܰܪ̈ܡܢܳܝܐ ܘܰܥܡܰܪܘ ܒܗ̇ ܘܐܝܬ ܠܗܘܢ ܒܗ̇ ܬܰܪܬܶܝܢ ܥܕ̈ܬܳܐ. بلدة على منابع نهر الخابور في الجزيرة كانت عامرة في المئة الثالثة عشرة ثم جربت وسنة 1869 توطنتها عشيره من الجركس، ثم سكنها خلق من السريان والارمن ولهم فيها بيعتان. a town located at the source of the river Khabur in the Jazira. It was settled in the thirteenth century, but was laid waste in 1869. It was later resettled by a Circassian tribe and then by Syrians and Armenians, who built churches in it. Attestation of names رأس عين and رأس العين in the Muʿjam al-buldān of Yāqūt al-Ḥamawī. Not the same conceptual place as Resh ʿAyna.",
          "type" : "settlement" } },
      
      { "type" : "Feature",
        "geometry" : 
        { "type" : "Point",
          "coordinates" : 
          [ 50.63348,
            26.28298 ] },
        "properties" : 
        { "uri" : "http:\/\/syriaca.org\/place\/2879",
          "name" : "Mashmahig — ܡܫܡܗܝܓ",
          "desc" : "An episcopal see on an island in Beth Qaṭraye Attestation of name ܡܫܡܗܝܓ in the Synodicon Orientale. Attestation of name ܡܝܫܡܗܓ in the Synodicon Orientale.",
          "type" : "diocese" } },
      
      { "type" : "Feature",
        "geometry" : 
        { "type" : "Point",
          "coordinates" : 
          [ 36.63115,
            33.97223 ] },
        "properties" : 
        { "uri" : "http:\/\/syriaca.org\/place\/101",
          "name" : "Yabrud",
          "desc" : "A town on the road between Damascus and Emesa. Attestation of name يبرود in the Muʿjam al-buldān of Yāqūt al-Ḥamawī.",
          "type" : "settlement" } },
      
      { "type" : "Feature",
        "geometry" : 
        { "type" : "Point",
          "coordinates" : 
          [ 41.5,
            38.5 ] },
        "properties" : 
        { "uri" : "http:\/\/syriaca.org\/place\/673",
          "name" : "Arzanene",
          "desc" : "A region west and a bit south of Lake Van. Armenia",
          "type" : "region" } },
      
      { "type" : "Feature",
        "geometry" : 
        { "type" : "Point",
          "coordinates" : 
          [ 46.266667,
            37.383333 ] },
        "properties" : 
        { "uri" : "http:\/\/syriaca.org\/place\/129",
          "name" : "Maragha — ܡܪܐܓܗ",
          "desc" : "A city south of Tabriz. ܐܰܬܪܐ ܕܰܛܒܺܝܒ ܒܰܡܕܝ̈ܢܳܬܐ ܕܰܐܕܘܪܒܰܝܓܰܐܢ ܠܬܰܝܡܢ ܬܶܒܪܝܙ ܘܰܠܡܰܕܢܚܐ ܕܝܰܡܬܐ ܕܐܘܪܡܺܝܐ. بلدة اشهر مدن اذربيجان جنوبي تبريز وشرقي بحيرة اورمية. a most famous town of Azerbayjan, south of Tabriz and east of Lake Urmiya. Attestation of name مَراغة in the Muʿjam al-buldān of Yāqūt al-Ḥamawī.",
          "type" : "settlement" } },
      
      { "type" : "Feature",
        "geometry" : 
        { "type" : "Point",
          "coordinates" : 
          [ 63.250278,
            30.374716 ] },
        "properties" : 
        { "uri" : "http:\/\/syriaca.org\/place\/4248",
          "name" : "Helmand River",
          "type" : "river" } },
      
      { "type" : "Feature",
        "geometry" : 
        { "type" : "Point",
          "coordinates" : 
          [ 64.1019094,
            35.715028 ] },
        "properties" : 
        { "uri" : "http:\/\/syriaca.org\/place\/4274",
          "name" : "Taleqan",
          "type" : "settlement" } },
      
      { "type" : "Feature",
        "geometry" : 
        { "type" : "Point",
          "coordinates" : 
          [ 34.75,
            31.25 ] },
        "properties" : 
        { "uri" : "http:\/\/syriaca.org\/place\/698",
          "name" : "Filasṭīn — ܦܠܫܬ",
          "desc" : "A region in the southern Levant, in Late Antiquity subdivided in several provinces also called Palestine. Attestation of name فِلَسْطين in the Muʿjam al-buldān of Yāqūt al-Ḥamawī.",
          "type" : "region" } },
      
      { "type" : "Feature",
        "geometry" : 
        { "type" : "Point",
          "coordinates" : 
          [ 76.5200517,
            9.6461871 ] },
        "properties" : 
        { "uri" : "http:\/\/syriaca.org\/place\/4512",
          "name" : "Mannanam",
          "type" : "settlement" } },
      
      { "type" : "Feature",
        "geometry" : 
        { "type" : "Point",
          "coordinates" : 
          [ 29.898889,
            31.1575 ] },
        "properties" : 
        { "uri" : "http:\/\/syriaca.org\/place\/5618",
          "name" : "Mareotis - ܡܪܝܘܛܐ",
          "desc" : "A district and town to the south-west of Alexandria, famous for its freshwater lake.",
          "type" : "region" } },
      
      { "type" : "Feature",
        "geometry" : 
        { "type" : "Point",
          "coordinates" : 
          [ 76.506874,
            10.1852719 ] },
        "properties" : 
        { "uri" : "http:\/\/syriaca.org\/place\/4506",
          "name" : "Malayattur",
          "type" : "settlement" } },
      
      { "type" : "Feature",
        "geometry" : 
        { "type" : "Point",
          "coordinates" : 
          [ 35.081667,
            32.927778 ] },
        "properties" : 
        { "uri" : "http:\/\/syriaca.org\/place\/14",
          "name" : "Acre",
          "desc" : "An ancient port on the coast of Phoenice, and the last Crusader foothold in the Levant. Attestation of name عَكّة in the Muʿjam al-buldān of Yāqūt al-Ḥamawī.",
          "type" : "settlement" } },
      
      { "type" : "Feature",
        "geometry" : 
        { "type" : "Point",
          "coordinates" : 
          [ 9.18806,
            45.463746 ] },
        "properties" : 
        { "uri" : "http:\/\/syriaca.org\/place\/854",
          "name" : "Milan",
          "type" : "settlement" } },
      
      { "type" : "Feature",
        "geometry" : 
        { "type" : "Point",
          "coordinates" : 
          [ 62.486397,
            36.855283 ] },
        "properties" : 
        { "uri" : "http:\/\/syriaca.org\/place\/4260",
          "name" : "Murghab River",
          "type" : "river" } },
      
      { "type" : "Feature",
        "geometry" : 
        { "type" : "Point",
          "coordinates" : 
          [ 43.341118,
            36.45075 ] },
        "properties" : 
        { "uri" : "http:\/\/syriaca.org\/place\/303",
          "name" : "Baʿshīqa — ܒܥܫܝܩܐ",
          "desc" : "ܡܶܢ ܩܘܽܪ̈ܝܳܐ ܕܡܰܘܨܠ ܠܡܰܕܢܚܳܗ̇. من قرى الموصل في شرقيها a village north of Mosul.",
          "type" : "settlement" } },
      
      { "type" : "Feature",
        "geometry" : 
        { "type" : "Point",
          "coordinates" : 
          [ 36.5665555,
            35.2654475 ] },
        "properties" : 
        { "uri" : "http:\/\/syriaca.org\/place\/4089",
          "name" : "Shayzar",
          "desc" : "See also one or more related places.",
          "type" : "settlement" } },
      
      { "type" : "Feature",
        "geometry" : 
        { "type" : "Point",
          "coordinates" : 
          [ 35.8575082,
            34.8565223 ] },
        "properties" : 
        { "uri" : "http:\/\/syriaca.org\/place\/4062",
          "name" : "Arwad",
          "type" : "settlement" } },
      
      { "type" : "Feature",
        "geometry" : 
        { "type" : "Point",
          "coordinates" : 
          [ 34.701983,
            36.811081 ] },
        "properties" : 
        { "uri" : "http:\/\/syriaca.org\/place\/5585",
          "name" : "Aulai - ܐܘܠܣ",
          "desc" : "A town in Cilicia. Joh. Eph., EH 5.4, mentions that the tritheist bishop Conon lived in a female monastery there in the mid-570s. Cilicia",
          "type" : "settlement" } },
      
      { "type" : "Feature",
        "geometry" : 
        { "type" : "Point",
          "coordinates" : 
          [ 37.788277,
            37.009788 ] },
        "properties" : 
        { "uri" : "http:\/\/syriaca.org\/place\/511",
          "name" : "Nizip — ܢܨܝܒܝܢ ܕܪ̈ܘܡܝܐ",
          "desc" : "A town west of the Euphrates between ʿAintab and Birtha. ونصيبين ايضا قرية على شاطئ الفرات غربي بيرهجك كانت تعرف بنصيبين الروم. Nisibin is also the name of a village on the west bank of the Euphrates, west of Biricik, formerly known as the Byzantine Nisibin. Attestation of name نصيبين الروم in the Muʿjam al-buldān of Yāqūt al-Ḥamawī.",
          "type" : "settlement" } },
      
      { "type" : "Feature",
        "geometry" : 
        { "type" : "Point",
          "coordinates" : 
          [ 41.484335,
            38.026197 ] },
        "properties" : 
        { "uri" : "http:\/\/syriaca.org\/place\/5591",
          "name" : "Chlomaron - ܟܠܝܡܪ",
          "desc" : "Chlomaron was a Persian fortress in Armenia close to the border with the Roman Empire and adjacent to the fortress of Aphum. Joh. Eph., EH 6.34, records that Maurice failed to take this fortress during his campaign in 578. Armenia",
          "type" : "fortification" } },
      
      { "type" : "Feature",
        "geometry" : 
        { "type" : "Point",
          "coordinates" : 
          [ 41.889894,
            37.407482 ] },
        "properties" : 
        { "uri" : "http:\/\/syriaca.org\/place\/288",
          "name" : "Isfis — ܐܣܦܣ",
          "desc" : "ܡܶܢ ܩܘܪ̈ܝܳܐ ܕܒܶܝܬ ܙܰܒܕܰܝ ܕܪܰܚܝܩܐ ܡܶܢ ܐܰܙܰܟ ܡܰܪܕܶܐ ܫܳܥܬܐ. من قرى بازبدي مسافة ساعة عن آزخ a village in the province of Bazabdi, one hour journey from Azekh.",
          "type" : "settlement" } },
      
      { "type" : "Feature",
        "geometry" : 
        { "type" : "Point",
          "coordinates" : 
          [ 35.28003,
            40.572478 ] },
        "properties" : 
        { "uri" : "http:\/\/syriaca.org\/place\/2573",
          "name" : "Euchaita — ܐܘܟܐܛܐ",
          "desc" : "A settlment in northern Anatolia.",
          "type" : "settlement" } },
      
      { "type" : "Feature",
        "geometry" : 
        { "type" : "Point",
          "coordinates" : 
          [ 35.946528,
            34.2830947 ] },
        "properties" : 
        { "uri" : "http:\/\/syriaca.org\/place\/4116",
          "name" : "Mar Antonios",
          "type" : "monastery" } },
      
      { "type" : "Feature",
        "geometry" : 
        { "type" : "Point",
          "coordinates" : 
          [ 76.2094975,
            10.1573084 ] },
        "properties" : 
        { "uri" : "http:\/\/syriaca.org\/place\/4499",
          "name" : "Muziris",
          "type" : "settlement" } },
      
      { "type" : "Feature",
        "geometry" : 
        { "type" : "Point",
          "coordinates" : 
          [ 54.349998,
            36.166666 ] },
        "properties" : 
        { "uri" : "http:\/\/syriaca.org\/place\/2995",
          "name" : "al-Dāmaghān",
          "desc" : "A large town between al-Ray and Naysābūr Attestation of name الدامغان in the Kitāb al-buldān of Aḥmad ibn Abī Yaʿqūb al-Yaʿqūbī.",
          "type" : "settlement" } },
      
      { "type" : "Feature",
        "geometry" : 
        { "type" : "Point",
          "coordinates" : 
          [ 82.447227,
            40.953887 ] },
        "properties" : 
        { "uri" : "http:\/\/syriaca.org\/place\/4328",
          "name" : "Tarim River",
          "type" : "river" } },
      
      { "type" : "Feature",
        "geometry" : 
        { "type" : "Point",
          "coordinates" : 
          [ 86.1740112,
            41.7266148 ] },
        "properties" : 
        { "uri" : "http:\/\/syriaca.org\/place\/4300",
          "name" : "Korla",
          "type" : "settlement" } },
      
      { "type" : "Feature",
        "geometry" : 
        { "type" : "Point",
          "coordinates" : 
          [ 47.9273652466,
            32.9014683708 ] },
        "properties" : 
        { "uri" : "http:\/\/syriaca.org\/place\/4466",
          "name" : "Beth Mihraqaye",
          "type" : "region" } },
      
      { "type" : "Feature",
        "geometry" : 
        { "type" : "Point",
          "coordinates" : 
          [ 79.493339,
            27.569726 ] },
        "properties" : 
        { "uri" : "http:\/\/syriaca.org\/place\/4472",
          "name" : "Ganges River",
          "type" : "river" } },
      
      { "type" : "Feature",
        "geometry" : 
        { "type" : "Point",
          "coordinates" : 
          [ 33.0779,
            31.2116 ] },
        "properties" : 
        { "uri" : "http:\/\/syriaca.org\/place\/2765",
          "name" : "Casium — ܩܣܝܢ",
          "desc" : "A monastery located on the seacoast, at the border between Egypt and Syria. Joh. Eph., EH 4.33, states that Jacob Burd'oyo and several of his companions died there in summer 578 when traveling to Egypt. Egypt",
          "type" : "monastery" } },
      
      { "type" : "Feature",
        "geometry" : 
        { "type" : "Point",
          "coordinates" : 
          [ 72.7855396,
            40.5273867 ] },
        "properties" : 
        { "uri" : "http:\/\/syriaca.org\/place\/4314",
          "name" : "Osh",
          "type" : "settlement" } },
      
      { "type" : "Feature",
        "geometry" : 
        { "type" : "Point",
          "coordinates" : 
          [ 126.9544029,
            47.4574603 ] },
        "properties" : 
        { "uri" : "http:\/\/syriaca.org\/place\/4473",
          "name" : "Hailun",
          "type" : "settlement" } },
      
      { "type" : "Feature",
        "geometry" : 
        { "type" : "Point",
          "coordinates" : 
          [ 68.3029246,
            42.852514 ] },
        "properties" : 
        { "uri" : "http:\/\/syriaca.org\/place\/4315",
          "name" : "Farab",
          "type" : "settlement" } },
      
      { "type" : "Feature",
        "geometry" : 
        { "type" : "Point",
          "coordinates" : 
          [ 82.9191399,
            41.7209775 ] },
        "properties" : 
        { "uri" : "http:\/\/syriaca.org\/place\/4301",
          "name" : "Kucha",
          "type" : "settlement" } },
      
      { "type" : "Feature",
        "geometry" : 
        { "type" : "Point",
          "coordinates" : 
          [ 89.2150033,
            42.9896202 ] },
        "properties" : 
        { "uri" : "http:\/\/syriaca.org\/place\/4467",
          "name" : "Shui Pang",
          "type" : "settlement" } },
      
      { "type" : "Feature",
        "geometry" : 
        { "type" : "Point",
          "coordinates" : 
          [ 69.2376208,
            41.3236845 ] },
        "properties" : 
        { "uri" : "http:\/\/syriaca.org\/place\/4329",
          "name" : "Tashkent",
          "type" : "settlement" } },
      
      { "type" : "Feature",
        "geometry" : 
        { "type" : "Point",
          "coordinates" : 
          [ 39.668324,
            38.641856 ] },
        "properties" : 
        { "uri" : "http:\/\/syriaca.org\/place\/2758",
          "name" : "ܿBeth Urtaye — ܒܝܬ ܐܘܪ̈ܛܝܐ",
          "desc" : "A region north of Mesopotamia A region in southern Armenia, often called Beth Urtaye in Syriac. The miaphysite bishop George, mentioned in Joh. Eph., EH 4.10, hailed from this place. Armenia",
          "type" : "region" } },
      
      { "type" : "Feature",
        "geometry" : 
        { "type" : "Point",
          "coordinates" : 
          [ 54.0382895,
            35.9610935 ] },
        "properties" : 
        { "uri" : "http:\/\/syriaca.org\/place\/2994",
          "name" : "Qūmis",
          "desc" : "A region between al-Ray and Naysābūr, around al-Dāmaghān Attestation of name قومس in the Kitāb al-buldān of Aḥmad ibn Abī Yaʿqūb al-Yaʿqūbī.",
          "type" : "region" } },
      
      { "type" : "Feature",
        "geometry" : 
        { "type" : "Point",
          "coordinates" : 
          [ 58.55,
            23.6 ] },
        "properties" : 
        { "uri" : "http:\/\/syriaca.org\/place\/2943",
          "name" : "Masqaṭ",
          "desc" : "A city in ʿUmān Attestation of name مسقط in the Kitāb al-aʿlāq al-nafīsa of Aḥmad ibn ʿUmar Ibn Rustah.",
          "type" : "settlement" } },
      
      { "type" : "Feature",
        "geometry" : 
        { "type" : "Point",
          "coordinates" : 
          [ 49.2343866,
            39.4192429 ] },
        "properties" : 
        { "uri" : "http:\/\/syriaca.org\/place\/2957",
          "name" : "al-Kurr",
          "desc" : "The river that runs beside Tbilisi and into the Caspian Sea Attestation of name الكر in the Kitāb al-aʿlāq al-nafīsa of Aḥmad ibn ʿUmar Ibn Rustah.",
          "type" : "river" } },
      
      { "type" : "Feature",
        "geometry" : 
        { "type" : "Point",
          "coordinates" : 
          [ 76.4748436935,
            9.5557279732 ] },
        "properties" : 
        { "uri" : "http:\/\/syriaca.org\/place\/4498",
          "name" : "Thekkumkur",
          "type" : "region" } },
      
      { "type" : "Feature",
        "geometry" : 
        { "type" : "Point",
          "coordinates" : 
          [ 30.25,
            30.75 ] },
        "properties" : 
        { "uri" : "http:\/\/syriaca.org\/place\/289",
          "name" : "Scetis — ܐܣܩܝܛ",
          "desc" : "ܡܰܕܒܪܐ ܕܰܠܡܰܥܪܰܒ ܩܐܰܗܪܗ̈ ܡܳܬܰܐ ܗܘ ܕܥܶܢܘܳܝ̈ܐ ܒܡܶܨܪܝܢ. برية في غربي القاهرة كانت موطن النساك بمصر a desert west of Cairo, once the abode of Egyptian ascetics.",
          "type" : "region" } },
      
      { "type" : "Feature",
        "geometry" : 
        { "type" : "Point",
          "coordinates" : 
          [ 30.51684,
            39.77489 ] },
        "properties" : 
        { "uri" : "http:\/\/syriaca.org\/place\/2572",
          "name" : "Dorylaion — ܕܐܘܪܠܝܘܢ",
          "desc" : "A settlement in norther Phrygia.",
          "type" : "settlement" } },
      
      { "type" : "Feature",
        "geometry" : 
        { "type" : "Point",
          "coordinates" : 
          [ 37.2911825019,
            36.5433191791 ] },
        "properties" : 
        { "uri" : "http:\/\/syriaca.org\/place\/4103",
          "name" : "Cyrrhestica",
          "type" : "region" } },
      
      { "type" : "Feature",
        "geometry" : 
        { "type" : "Point",
          "coordinates" : 
          [ 36.911673,
            38.246013 ] },
        "properties" : 
        { "uri" : "http:\/\/syriaca.org\/place\/5584",
          "name" : "Arabissus - ܐܪܒܝܣܘܣ",
          "desc" : "A city in Cappadocia, it was the hometown of emperor Maurice (582-602), who embellished it with the construction of representative builidings, as is stated in Joh. Eph., EH 5.22 and 23. Cappadocia",
          "type" : "settlement" } },
      
      { "type" : "Feature",
        "geometry" : 
        { "type" : "Point",
          "coordinates" : 
          [ 36.549116,
            40.317677 ] },
        "properties" : 
        { "uri" : "http:\/\/syriaca.org\/place\/510",
          "name" : "Tokat — ܬܘܩܐܬ",
          "desc" : "A city of north-central Anatolia. Attestation of name تَوْقات in the Muʿjam al-buldān of Yāqūt al-Ḥamawī.",
          "type" : "settlement" } },
      
      { "type" : "Feature",
        "geometry" : 
        { "type" : "Point",
          "coordinates" : 
          [ 49.8346066,
            40.3660023 ] },
        "properties" : 
        { "uri" : "http:\/\/syriaca.org\/place\/4063",
          "name" : "Baku",
          "type" : "settlement" } },
      
      { "type" : "Feature",
        "geometry" : 
        { "type" : "Point",
          "coordinates" : 
          [ 32.292698,
            31.255258 ] },
        "properties" : 
        { "uri" : "http:\/\/syriaca.org\/place\/316",
          "name" : "Tinnīs — ܬܢܝܣ",
          "desc" : "ܡܕܝܢܬܐ ܥܰܬܝܩܬܳܐ ܕܰܒܬܰܝܡܰܢ ܡܰܥܪܰܒ ܒܳܘܪܣܰܥܝܕ ܚܶܪܒܰܬ 1227. مدينة قديمة كانت في جنوبي غربي بورسعيد خربت سنة 1227 an ancient city southwest of Port Saʿīd, ruined in 1227. Attestation of name تِنِّيْس in the Muʿjam al-buldān of Yāqūt al-Ḥamawī.",
          "type" : "settlement" } },
      
      { "type" : "Feature",
        "geometry" : 
        { "type" : "Point",
          "coordinates" : 
          [ 46.2660831,
            36.2377833 ] },
        "properties" : 
        { "uri" : "http:\/\/syriaca.org\/place\/4088",
          "name" : "Saqqez",
          "type" : "settlement" } },
      
      { "type" : "Feature",
        "geometry" : 
        { "type" : "Point",
          "coordinates" : 
          [ 76.3874084,
            9.9002487 ] },
        "properties" : 
        { "uri" : "http:\/\/syriaca.org\/place\/4507",
          "name" : "Mulamthuruthy",
          "type" : "settlement" } },
      
      { "type" : "Feature",
        "geometry" : 
        { "type" : "Point",
          "coordinates" : 
          [ 61.4891052,
            34.3465542 ] },
        "properties" : 
        { "uri" : "http:\/\/syriaca.org\/place\/4261",
          "name" : "Fushanj",
          "type" : "settlement" } },
      
      { "type" : "Feature",
        "geometry" : 
        { "type" : "Point",
          "coordinates" : 
          [ 35.32133,
            37 ] },
        "properties" : 
        { "uri" : "http:\/\/syriaca.org\/place\/15",
          "name" : "Adana — ܐܛܢܗ",
          "desc" : "A city on the Seyhan River in south-eastern Anatolia, near the Mediterranean coast. Attestation of name أَذَنَة in the Muʿjam al-buldān of Yāqūt al-Ḥamawī. This place shares a name with one or more distinct places. This place shares a location with one or more distinct places that should not be confused with one another.",
          "type" : "settlement" } },
      
      { "type" : "Feature",
        "geometry" : 
        { "type" : "Point",
          "coordinates" : 
          [ 51.4208221,
            35.6796445 ] },
        "properties" : 
        { "uri" : "http:\/\/syriaca.org\/place\/4275",
          "name" : "Tehran",
          "type" : "settlement" } },
      
      { "type" : "Feature",
        "geometry" : 
        { "type" : "Point",
          "coordinates" : 
          [ 76.5038645,
            9.7568534 ] },
        "properties" : 
        { "uri" : "http:\/\/syriaca.org\/place\/4513",
          "name" : "Muttuchira",
          "type" : "settlement" } },
      
      { "type" : "Feature",
        "geometry" : 
        { "type" : "Point",
          "coordinates" : 
          [ 46.5,
            39.5 ] },